,Name,Latitude,Longitude,Max_Temp,Humidity,Cloudiness,Wind_Speed,Country,Date
0,victoria,22.2855,114.1577,82.36,74.0,73.0,17.22,HK,1630054661.0
1,lebu,-37.6167,-73.65,46.56,87.0,100.0,10.29,CL,1630054766.0
2,chapais,49.7834,-74.8492,51.58,83.0,100.0,8.28,CA,1630054767.0
3,hobart,-42.8794,147.3294,48.06,82.0,75.0,5.75,AU,1630054529.0
4,albany,42.6001,-73.9662,72.81,92.0,18.0,3.67,US,1630054626.0
5,punta arenas,-53.15,-70.9167,33.91,93.0,20.0,8.05,CL,1630054767.0
6,chuy,-33.6971,-53.4616,44.47,76.0,0.0,7.96,UY,1630054768.0
7,saint anthony,45.0205,-93.218,69.55,94.0,90.0,1.99,US,1630054768.0
8,new norfolk,-42.7826,147.0587,47.71,80.0,100.0,1.72,AU,1630054769.0
9,sioux lookout,50.1001,-91.917,53.98,87.0,75.0,5.75,CA,1630054769.0
10,salalah,17.0151,54.0924,83.12,80.0,89.0,12.41,OM,1630054769.0
11,broome,42.2506,-75.833,73.0,89.0,90.0,0.0,US,1630054770.0
12,pangnirtung,66.1451,-65.7125,38.53,97.0,100.0,4.88,CA,1630054770.0
13,bathsheba,13.2167,-59.5167,81.21,83.0,40.0,21.85,BB,1630054771.0
14,bethel,41.3712,-73.414,75.9,92.0,6.0,3.31,US,1630054771.0
15,mildura,-34.2,142.15,58.96,31.0,1.0,5.75,AU,1630054772.0
16,hofn,64.2539,-15.2082,53.62,100.0,90.0,0.0,IS,1630054772.0
17,touros,-5.1989,-35.4608,70.7,80.0,9.0,14.36,BR,1630054772.0
18,clyde river,70.4692,-68.5914,36.66,91.0,99.0,2.44,CA,1630054773.0
19,mahebourg,-20.4081,57.7,71.89,83.0,75.0,18.41,MU,1630054773.0
20,ushuaia,-54.8,-68.3,29.86,80.0,0.0,2.3,AR,1630054773.0
21,kavieng,-2.5744,150.7967,82.54,76.0,93.0,12.01,PG,1630054774.0
22,tasiilaq,65.6145,-37.6368,42.46,93.0,100.0,8.97,GL,1630054774.0
23,canon city,38.441,-105.2424,68.5,58.0,1.0,8.99,US,1630054775.0
24,busselton,-33.65,115.3333,56.05,66.0,80.0,11.61,AU,1630054775.0
25,mataura,-46.1927,168.8643,43.48,96.0,100.0,2.75,NZ,1630054775.0
26,puerto ayora,-0.7393,-90.3518,68.56,91.0,64.0,8.01,EC,1630054776.0
27,san jose de guanipa,8.8872,-64.1651,71.62,91.0,11.0,7.81,VE,1630054776.0
28,port alfred,-33.5906,26.891,58.91,75.0,100.0,21.09,ZA,1630054777.0
29,sao joao da barra,-21.6403,-41.0511,68.74,80.0,6.0,4.94,BR,1630054777.0
30,butaritari,3.0707,172.7902,83.43,73.0,75.0,12.66,KI,1630054777.0
31,eyl,7.9803,49.8164,91.6,42.0,100.0,23.53,SO,1630054778.0
32,iqaluit,63.7506,-68.5145,44.33,93.0,90.0,9.22,CA,1630054778.0
33,nikolskoye,59.7035,30.7861,57.09,76.0,100.0,9.69,RU,1630054779.0
34,saint-nazaire,47.2833,-2.2,66.04,69.0,0.0,12.66,FR,1630054779.0
35,antofagasta,-23.65,-70.4,56.48,86.0,55.0,6.24,CL,1630054779.0
36,mar del plata,-38.0023,-57.5575,42.82,75.0,0.0,18.41,AR,1630054780.0
37,kutum,14.2,24.6667,85.03,33.0,86.0,4.41,SD,1630054780.0
38,rikitea,-23.1203,-134.9692,72.84,68.0,0.0,15.73,PF,1630054780.0
39,saldanha,-33.0117,17.9442,51.85,42.0,93.0,19.8,ZA,1630054781.0
40,berlevag,70.8578,29.0864,58.95,47.0,0.0,14.97,NO,1630054781.0
41,kushmurun,52.4503,64.6311,89.33,19.0,4.0,7.16,KZ,1630054781.0
42,hermanus,-34.4187,19.2345,47.89,58.0,100.0,23.94,ZA,1630054782.0
43,bichura,50.5881,107.6022,65.57,54.0,100.0,0.83,RU,1630054782.0
44,high level,58.5169,-117.136,46.51,100.0,1.0,0.0,CA,1630054782.0
45,bluff,-34.0033,24.7314,48.78,81.0,100.0,15.05,ZA,1630054783.0
46,kruisfontein,69.4865,88.3972,48.18,94.0,100.0,11.7,RU,1630054663.0
47,barentsburg,47.1483,42.4633,88.43,26.0,100.0,8.59,RU,1630054783.0
48,zimovniki,-33.7333,-70.75,42.84,71.0,100.0,0.98,CL,1630054784.0
49,buin,38.421,-121.4238,74.32,60.0,1.0,4.61,US,1630054784.0
50,laguna,28.6585,-17.9182,71.35,86.0,20.0,5.75,ES,1630054724.0
51,los llanos de aridane,-23.7,133.8833,78.35,11.0,0.0,0.0,AU,1630054785.0
52,alice springs,34.6391,-120.4579,58.62,97.0,90.0,1.01,US,1630054785.0
53,lompoc,-33.9258,18.4232,55.11,58.0,75.0,7.0,ZA,1630054786.0
54,cape town,40.5982,-124.1573,59.47,75.0,90.0,1.99,US,1630054786.0
55,fortuna,40.7761,44.9685,84.33,46.0,0.0,6.62,AM,1630054786.0
56,haghartsin,20.5022,-10.0711,91.08,38.0,75.0,11.36,MR,1630054787.0
57,adrar,-34.5322,20.0403,51.12,66.0,75.0,17.27,ZA,1630054787.0
58,bredasdorp,52.8496,17.7199,63.05,63.0,96.0,6.17,PL,1630054787.0
59,solsvik,62.456,-114.3525,55.92,76.0,20.0,6.91,CA,1630054788.0
60,nizhneyansk,-6.8844,112.2051,87.87,48.0,17.0,5.73,ID,1630054788.0
61,labuhan,42.3256,-83.331,75.15,88.0,81.0,4.7,US,1630054567.0
62,burica,-16.4833,-151.75,79.12,68.0,16.0,13.38,PF,1630054789.0
63,faanui,39.05,-27.9833,66.96,88.0,100.0,9.26,PT,1630054789.0
64,lagoa,-3.8881,-59.0942,77.27,71.0,100.0,2.48,BR,1630054790.0
65,nova olinda do norte,-22.9661,-42.0278,69.82,94.0,52.0,17.81,BR,1630054790.0
66,arraial do cabo,35.7333,140.8333,86.4,87.0,90.0,6.49,JP,1630054790.0
67,hasaki,20.5169,-13.0499,92.28,25.0,17.0,1.74,MR,1630054791.0
68,atar,50.6789,156.125,54.3,95.0,100.0,11.07,RU,1630054791.0
69,severo-kurilsk,39.8333,-4.0,82.31,28.0,0.0,5.01,ES,1630054785.0
70,toledo,-6.2167,155.6333,78.87,87.0,100.0,7.61,PG,1630054792.0
71,kieta,42.097,-79.2353,71.02,97.0,20.0,3.0,US,1630054792.0
72,jamestown,1.7427,98.7792,83.52,69.0,53.0,5.08,ID,1630054792.0
73,belushya guba,64.2229,41.656,55.51,46.0,99.0,0.81,RU,1630054793.0
74,kholmogory,14.8961,-24.4956,78.49,82.0,61.0,7.14,CV,1630054793.0
75,sao filipe,42.0551,59.3788,95.09,13.0,3.0,7.36,TM,1630054793.0
76,akdepe,1.7471,40.0573,87.94,40.0,36.0,19.62,KE,1630054794.0
77,wajir,-19.55,169.2667,71.15,73.0,2.0,8.12,VU,1630054794.0
78,isangel,43.9015,-70.4703,72.18,87.0,9.0,4.23,US,1630054795.0
79,raymond,-0.6,73.0833,82.8,71.0,13.0,10.0,MV,1630054795.0
80,hithadhoo,54.4778,-8.2809,64.65,85.0,19.0,5.01,IE,1630054795.0
81,bundoran,22.8909,-109.9124,85.8,81.0,57.0,10.74,MX,1630054543.0
82,mullaitivu,-21.3585,55.7679,78.35,83.0,67.0,16.64,RE,1630054796.0
83,saint-philippe,44.0782,-116.9338,63.77,49.0,5.0,6.17,US,1630054796.0
84,payette,-20.3297,-40.2925,71.55,83.0,20.0,9.22,BR,1630054797.0
85,vila velha,34.4166,-79.3712,73.98,96.0,8.0,2.57,US,1630054797.0
86,dillon,36.7867,31.4431,88.21,45.0,0.0,8.52,TR,1630054797.0
87,manavgat,37.15,122.3833,74.28,77.0,100.0,8.08,CN,1630054798.0
88,taolanaro,25.4417,75.6417,95.47,41.0,78.0,7.65,IN,1630054798.0
89,salisbury,63.8424,-22.4338,57.15,100.0,90.0,28.77,IS,1630054799.0
90,bundi,60.1432,-45.2371,42.19,85.0,42.0,16.4,GL,1630054799.0
91,grindavik,40.4272,71.7189,93.92,15.0,22.0,9.22,UZ,1630054799.0
92,nanortalik,67.4667,78.7,38.88,95.0,100.0,26.57,RU,1630054800.0
93,komsomolskiy,-17.2333,-67.9167,38.71,61.0,51.0,4.56,BO,1630054800.0
94,tazovskiy,27.8006,-97.3964,84.18,84.0,58.0,1.01,US,1630054531.0
95,corpus christi,30.6945,78.4932,74.3,82.0,74.0,4.74,IN,1630054801.0
96,attawapiskat,40.1629,-8.3327,67.82,54.0,0.0,3.31,PT,1630054801.0
97,ginda,68.0531,39.5131,56.88,57.0,35.0,15.7,RU,1630054802.0
98,lata,19.7297,-155.09,72.25,92.0,26.0,0.92,US,1630054803.0
99,ostrovnoy,-21.2,-175.2,68.11,63.0,100.0,21.54,TO,1630054804.0
100,hilo,-12.2333,136.7667,79.41,65.0,5.0,13.8,AU,1630054805.0
101,vaini,-3.3542,-64.7114,74.59,67.0,80.0,2.66,BR,1630054806.0
102,nhulunbuy,-41.8697,-73.8203,43.43,92.0,100.0,17.81,CL,1630054807.0
103,tefe,-38.3833,142.4833,51.71,64.0,69.0,8.16,AU,1630054810.0
104,ancud,12.0564,-61.7485,79.92,81.0,10.0,10.76,GD,1630054810.0
105,warrnambool,60.9167,-46.05,46.62,85.0,16.0,0.63,GL,1630054812.0
106,saint-georges,-21.2078,-159.775,68.05,77.0,75.0,4.61,CK,1630054813.0
107,narsaq,41.8708,72.9402,84.54,22.0,8.0,6.22,KG,1630054814.0
108,avarua,7.7669,-72.225,63.99,97.0,73.0,1.83,VE,1630054815.0
109,toktogul,-2.9022,-40.8411,77.45,76.0,10.0,16.93,BR,1630054815.0
110,san cristobal,34.4506,40.9171,104.58,15.0,0.0,7.85,SY,1630054816.0
111,camocim,27.9054,-15.4461,72.66,73.0,40.0,17.27,ES,1630054817.0
112,abu kamal,-28.5708,-70.7581,52.43,60.0,1.0,2.19,CL,1630054818.0
113,aguimes,22.0752,-159.319,77.11,59.0,68.0,3.0,US,1630054818.0
114,kapaa,-0.9131,122.8766,78.4,86.0,88.0,3.36,ID,1630054819.0
115,grand river south east,1.1983,-70.1733,70.79,98.0,63.0,1.43,CO,1630054820.0
116,biak,-27.8994,-53.3136,44.4,94.0,7.0,6.98,BR,1630054820.0
117,mitu,42.2431,-84.753,74.98,93.0,75.0,0.0,US,1630054821.0
118,palmeira das missoes,34.7747,111.1814,82.96,46.0,0.0,14.5,CN,1630054822.0
119,albion,-8.3581,-42.2467,72.73,65.0,1.0,7.7,BR,1630054822.0
120,sanmenxia,-29.7456,-50.0097,53.47,85.0,64.0,4.43,BR,1630054823.0
121,sao joao do piaui,69.4541,-133.0374,49.86,69.0,73.0,19.53,CA,1630054824.0
122,capao da canoa,-31.95,141.4333,53.83,36.0,1.0,5.93,AU,1630054824.0
123,tuktoyaktuk,57.0294,29.3338,57.87,98.0,100.0,7.31,RU,1630054825.0
124,broken hill,-24.7911,-50.0119,50.86,92.0,68.0,2.71,BR,1630054825.0
125,novorzhev,70.6333,147.9167,53.53,58.0,100.0,13.58,RU,1630054827.0
126,castro,-23.35,47.6,75.18,56.0,58.0,7.76,MG,1630054828.0
127,chokurdakh,41.7597,86.1469,87.75,16.0,2.0,0.49,CN,1630054828.0
128,vangaindrano,71.9667,102.5,43.75,57.0,100.0,19.51,RU,1630054829.0
129,korla,55.7435,-97.8558,43.5,93.0,0.0,4.88,CA,1630054830.0
130,khatanga,24.6877,46.7219,105.94,6.0,0.0,17.27,SA,1630054613.0
131,thompson,63.7256,8.834,60.91,73.0,4.0,15.79,NO,1630054830.0
132,riyadh,69.2167,-51.1,41.02,87.0,90.0,2.3,GL,1630054831.0
133,sistranda,43.7667,11.25,83.46,60.0,40.0,2.3,IT,1630054619.0
134,florence,-13.2,49.05,90.59,19.0,2.0,3.78,MG,1630054832.0
135,ningan,5.1033,73.0708,81.79,78.0,85.0,14.47,MV,1630054832.0
136,ambilobe,63.4427,-20.2734,56.39,94.0,90.0,12.66,IS,1630054833.0
137,san patricio,43.6167,27.1167,79.79,60.0,90.0,10.71,BG,1630054834.0
138,eydhafushi,2.8197,-60.6733,80.58,74.0,40.0,8.05,BR,1630054834.0
139,vestmannaeyjar,50.6996,-127.4199,54.1,91.0,44.0,4.85,CA,1630054835.0
140,boa vista,-51.6226,-69.2181,34.27,83.0,34.0,7.09,AR,1630054836.0
141,vaitupu,62.55,155.55,48.15,98.0,100.0,6.33,RU,1630054837.0
142,tsihombe,-9.8,-139.0333,76.78,83.0,29.0,17.43,PF,1630054837.0
143,dukat,7.9178,98.3332,85.82,70.0,38.0,9.57,TH,1630054838.0
144,illoqqortoormiut,37.05,140.8833,82.06,82.0,25.0,5.01,JP,1630054838.0
145,atuona,57.79,-152.4072,51.51,90.0,86.0,2.62,US,1630054839.0
146,kathu,64.8378,-147.7164,49.1,94.0,100.0,1.59,US,1630054776.0
147,iwaki,46.5168,-84.3333,61.9,73.0,100.0,8.81,CA,1630054822.0
148,kodiak,29.5833,-9.5,77.86,46.0,94.0,3.74,MA,1630054840.0
149,fairbanks,39.5108,54.3671,96.71,31.0,4.0,5.41,TM,1630054840.0
150,sault sainte marie,43.3236,145.575,62.53,93.0,100.0,10.54,JP,1630054841.0
151,tiznit,25.5198,90.2201,77.04,95.0,100.0,2.28,IN,1630054841.0
152,balkanabat,-46.2817,169.8464,44.64,94.0,100.0,8.9,NZ,1630054841.0
153,nemuro,60.4664,26.9458,56.46,76.0,100.0,19.35,FI,1630054842.0
154,tura,65.282,-126.8329,57.81,77.0,100.0,4.43,CA,1630054842.0
155,kaitangata,-31.4333,152.9167,58.64,42.0,13.0,9.71,AU,1630054843.0
156,kotka,-24.8667,113.6333,68.79,45.0,0.0,20.24,AU,1630054843.0
157,norman wells,25.2333,-104.1333,69.37,65.0,9.0,1.81,MX,1630054844.0
158,port macquarie,-20.3428,57.7575,70.21,83.0,93.0,23.47,MU,1630054844.0
159,carnarvon,54.3161,-130.3201,55.49,100.0,90.0,3.44,CA,1630054827.0
160,nazas,45.1582,33.2787,79.95,63.0,77.0,5.68,UA,1630054845.0
161,bambous virieux,57.3064,88.1667,80.2,44.0,18.0,6.2,RU,1630054845.0
162,prince rupert,44.1631,133.2733,71.2,76.0,56.0,4.56,RU,1630054845.0
163,zaozerne,-3.9014,-38.3911,78.89,82.0,28.0,11.9,BR,1630054846.0
164,teguldet,50.2334,-63.5986,58.86,92.0,100.0,14.25,CA,1630054847.0
165,arsenyev,48.7555,-91.6216,50.2,94.0,84.0,7.09,CA,1630054847.0
166,aquiraz,6.5833,3.75,80.92,89.0,100.0,3.09,NG,1630054522.0
167,havre-saint-pierre,39.1207,27.1805,79.86,21.0,0.0,8.88,TR,1630054848.0
168,atikokan,-21.55,167.8833,70.34,74.0,17.0,9.31,NC,1630054848.0
169,lagos,-22.6667,167.4833,71.11,78.0,63.0,16.24,NC,1630054849.0
170,bergama,35.1333,140.3,86.11,91.0,52.0,5.23,JP,1630054849.0
171,tadine,41.4605,45.0928,93.29,30.0,0.0,7.81,GE,1630054850.0
172,vao,4.8845,-1.7554,79.92,77.0,100.0,8.55,GH,1630054851.0
173,katsuura,-4.3614,14.7644,81.18,61.0,91.0,7.52,CG,1630054851.0
174,gardabani,30.9866,103.9393,75.29,69.0,91.0,4.21,CN,1630054851.0
175,takoradi,38.5167,-28.7,68.4,73.0,75.0,10.36,PT,1630054852.0
176,kinkala,73.5069,80.5464,39.31,72.0,100.0,21.56,RU,1630054853.0
177,tianpeng,72.7868,-56.1549,38.86,95.0,97.0,3.02,GL,1630054853.0
178,ribeira grande,62.5147,65.8878,55.08,46.0,100.0,10.71,RU,1630054853.0
179,dikson,66.8333,70.8333,44.83,79.0,100.0,24.18,RU,1630054854.0
180,upernavik,-30.1811,-50.2056,51.94,86.0,2.0,3.18,BR,1630054854.0
181,andra,-6.6447,-51.995,72.34,77.0,80.0,0.58,BR,1630054855.0
182,yar-sale,-22.2292,-50.8931,62.53,64.0,100.0,9.62,BR,1630054855.0
183,cidreira,-12.2569,44.5319,81.3,60.0,12.0,3.8,KM,1630054856.0
184,sao felix do xingu,-35.7167,150.1833,51.98,95.0,100.0,9.19,AU,1630054856.0
185,barrow,32.6667,-17.1,76.12,67.0,32.0,4.88,PT,1630054857.0
186,rancharia,-33.0153,27.9116,64.83,60.0,10.0,17.94,ZA,1630054857.0
187,domoni,-0.9516,122.7875,79.56,90.0,94.0,2.91,ID,1630054858.0
188,batemans bay,-34.0527,23.3716,51.53,75.0,100.0,16.13,ZA,1630054858.0
189,ponta do sol,42.7762,-9.0603,72.1,73.0,0.0,4.61,ES,1630054858.0
190,east london,29.9697,40.2064,106.54,6.0,1.0,4.32,SA,1630054859.0
191,luwuk,0.5167,25.2,90.64,45.0,4.0,3.74,CD,1630054859.0
192,plettenberg bay,-37.8333,140.7667,44.98,78.0,2.0,3.24,AU,1630054860.0
193,muros,-33.0393,-71.6273,50.02,77.0,100.0,6.04,CL,1630054860.0
194,sakakah,37.7167,-25.4333,70.21,79.0,88.0,8.66,PT,1630054861.0
195,kisangani,27.0377,14.4283,94.41,16.0,0.0,8.16,LY,1630054861.0
196,mount gambier,46.4333,26.4,69.96,63.0,3.0,4.92,RO,1630054862.0
197,valparaiso,-20.7333,139.5,74.97,10.0,0.0,5.75,AU,1630054863.0
198,vila franca do campo,-7.6087,15.0613,75.92,70.0,93.0,4.12,AO,1630054863.0
199,sabha,2.0167,112.9333,83.57,74.0,85.0,0.56,MY,1630054863.0
200,mount isa,45.3246,-118.0877,62.04,77.0,10.0,3.44,US,1630054808.0
201,uige,58.5102,34.5911,64.27,71.0,97.0,11.63,RU,1630054864.0
202,yirol,-8.4689,29.6619,83.37,32.0,7.0,5.12,ZM,1630054865.0
203,la grande,49.8167,-94.4337,60.78,83.0,82.0,6.89,CA,1630054865.0
204,moshenskoye,-41.4122,175.5153,52.45,95.0,100.0,4.43,NZ,1630054866.0
205,samusu,36.2946,-76.2511,79.02,94.0,11.0,5.82,US,1630054866.0
206,kenora,-33.918,25.5701,57.49,67.0,20.0,24.16,ZA,1630054867.0
207,waipawa,34.6667,138.95,82.51,84.0,39.0,7.25,JP,1630054867.0
208,elizabeth city,-2.6333,-80.3833,69.19,87.0,100.0,7.29,EC,1630054756.0
209,mendahara,60.7522,-137.5108,47.98,94.0,100.0,4.38,CA,1630054868.0
210,port elizabeth,-25.9622,32.4589,91.38,22.0,1.0,15.21,MZ,1630054868.0
211,shimoda,53.75,127.2667,59.16,92.0,100.0,5.39,RU,1630054869.0
212,haines junction,36.3703,30.2869,90.27,43.0,0.0,9.19,TR,1630054869.0
213,matola,40.8665,-124.0828,58.75,96.0,90.0,6.91,US,1630054870.0
214,zeya,13.35,-15.75,80.35,81.0,84.0,3.76,GM,1630054870.0
215,tlahualilo,-10.0681,-78.1522,61.2,89.0,98.0,8.97,PE,1630054870.0
216,arcata,25.0213,37.2685,93.25,54.0,6.0,14.7,SA,1630054871.0
217,nioro,-20.7377,116.8463,79.84,38.0,0.0,13.73,AU,1630054871.0
218,huarmey,58.8053,-122.7002,56.79,88.0,75.0,2.3,CA,1630054826.0
219,samalaeulu,36.0564,103.7922,79.77,25.0,82.0,12.55,CN,1630054872.0
220,umm lajj,61.95,159.2333,49.44,99.0,100.0,9.37,RU,1630054873.0
221,karratha,11.6667,92.75,82.85,76.0,100.0,14.65,IN,1630054873.0
222,fort nelson,38.4167,77.2406,89.91,15.0,100.0,2.89,CN,1630054874.0
223,lanzhou,38.6001,-77.1622,76.05,89.0,8.0,1.5,US,1630054874.0
224,evensk,-3.8004,102.2655,83.98,70.0,50.0,11.41,ID,1630054875.0
225,indian head,34.8791,-76.9013,80.92,93.0,12.0,4.16,US,1630054875.0
226,bengkulu,-29.9533,-71.3436,51.48,80.0,9.0,1.68,CL,1630054876.0
227,bargal,32.6167,14.0,94.46,27.0,0.0,10.63,LY,1630054876.0
228,aflu,32.3502,-85.1999,74.91,91.0,9.0,4.0,US,1630054876.0
229,ginir,77.484,-69.3632,37.85,90.0,100.0,3.94,GL,1630054877.0
230,havelock,-9.7915,29.0791,87.73,20.0,6.0,4.32,ZM,1630054877.0
231,coquimbo,-38.6044,145.5913,52.05,91.0,100.0,7.47,AU,1630054877.0
232,russell,-0.9492,100.3543,86.05,79.0,49.0,2.84,ID,1630054878.0
233,qaanaaq,-34.5833,150.8552,59.18,59.0,100.0,4.0,AU,1630054596.0
234,kawambwa,43.0,68.0,98.83,12.0,1.0,12.03,KZ,1630054878.0
235,wonthaggi,-8.8432,121.6623,79.56,74.0,98.0,5.41,ID,1630054879.0
236,khormuj,55.6821,69.2056,82.58,36.0,99.0,11.7,RU,1630054879.0
237,padang,20.7,-105.2,80.22,91.0,43.0,3.0,MX,1630054880.0
238,flinders,43.2128,-75.4557,74.43,92.0,40.0,0.0,US,1630054880.0
239,turkistan,46.6806,113.2792,53.64,80.0,100.0,10.89,MN,1630054880.0
240,ende,14.0351,-83.3888,74.93,93.0,96.0,4.43,NI,1630054831.0
241,novoseleznevo,-8.9266,125.4092,63.5,79.0,100.0,4.56,TL,1630054881.0
242,ixtapa,24.4667,54.3667,109.51,37.0,0.0,5.75,AE,1630054594.0
243,roma,71.6872,128.8694,36.91,98.0,100.0,20.65,RU,1630054881.0
244,baruun-urt,-21.1353,-55.83,62.04,80.0,92.0,5.91,BR,1630054882.0
245,puerto cabezas,4.1363,96.1285,84.18,69.0,65.0,7.34,ID,1630054882.0
246,airai,71.9167,114.0833,39.38,77.0,100.0,8.16,RU,1630054883.0
247,abu dhabi,-16.0667,167.3833,76.28,71.0,24.0,13.87,VU,1630054883.0
248,tiksi,62.2266,-6.589,52.72,89.0,97.0,8.43,FO,1630054884.0
249,nioaque,-43.3002,-65.1023,38.5,71.0,2.0,8.86,AR,1630054864.0
250,meulaboh,-46.1333,167.6833,43.83,95.0,100.0,2.95,NZ,1630054884.0
251,saskylakh,-33.8667,121.9,49.84,66.0,80.0,24.9,AU,1630054884.0
252,norsup,33.0833,-16.3333,72.36,83.0,40.0,11.5,PT,1630054885.0
253,klaksvik,-6.9811,-34.8339,75.6,76.0,18.0,12.8,BR,1630054885.0
254,rawson,28.3667,129.4833,79.52,73.0,84.0,4.74,JP,1630054885.0
255,tuatapere,14.4,46.4667,94.93,24.0,2.0,9.57,YE,1630054886.0
256,esperance,54.675,20.1347,59.05,73.0,73.0,10.13,RU,1630054886.0
257,camacha,38.0507,58.2056,97.16,18.0,0.0,7.56,TM,1630054886.0
258,cabedelo,61.9875,5.1352,63.19,69.0,8.0,7.38,NO,1630054887.0
259,naze,46.95,24.05,68.09,41.0,84.0,3.02,RO,1630054887.0
260,marzuq,48.9833,12.2,60.04,76.0,40.0,8.21,DE,1630054888.0
261,svetlyy,17.8868,-77.5902,74.89,92.0,100.0,14.83,JM,1630054888.0
262,buzmeyin,4.7717,33.5903,90.79,25.0,5.0,9.6,SS,1630054888.0
263,raudeberg,65.441,52.1498,52.41,55.0,95.0,7.36,RU,1630054889.0
264,taga,54.0241,55.8825,72.36,41.0,6.0,11.48,RU,1630054889.0
265,neutraubling,17.4189,121.4443,86.09,64.0,73.0,3.24,PH,1630054889.0
266,bull savanna,-2.0226,147.2712,81.41,77.0,5.0,7.87,PG,1630054890.0
267,kapoeta,31.8111,121.655,85.98,83.0,78.0,4.38,CN,1630054890.0
268,ust-tsilma,-26.8167,31.9333,92.86,20.0,3.0,14.25,SZ,1630054890.0
269,tolbazy,34.1667,77.5833,71.6,20.0,3.0,6.71,IN,1630054891.0
270,tabuk,-9.6567,120.2641,84.29,56.0,42.0,15.61,ID,1630054891.0
271,lorengau,14.5106,6.765,86.74,49.0,65.0,8.7,NE,1630054891.0
272,huilong,-19.9842,57.6142,70.47,89.0,59.0,14.0,MU,1630054892.0
273,big bend,65.4167,-52.9,40.51,86.0,100.0,7.45,GL,1630054892.0
274,leh,-35.35,150.4667,54.09,92.0,100.0,11.03,AU,1630054892.0
275,waingapu,-10.6167,150.6667,80.2,87.0,98.0,12.57,PG,1630054893.0
276,dakoro,30.6697,-81.4626,79.99,91.0,40.0,7.0,US,1630054854.0
277,cap malheureux,68.0546,166.4372,49.77,58.0,100.0,3.36,RU,1630054893.0
278,maniitsoq,-2.0833,101.3833,68.54,94.0,97.0,1.43,ID,1630054894.0
279,harper,-1.8283,-44.8683,75.16,91.0,50.0,5.28,BR,1630054894.0
280,ulladulla,22.35,-103.2167,56.1,80.0,0.0,6.89,MX,1630054894.0
281,fernandina beach,64.8945,-23.7142,55.27,94.0,100.0,32.5,IS,1630054634.0
282,bilibino,-28.7667,114.6,63.01,59.0,17.0,11.5,AU,1630054895.0
283,sungaipenuh,4.9333,-52.3333,75.24,92.0,0.0,3.44,GF,1630054805.0
284,cururupu,33.194,-82.5271,75.7,90.0,85.0,5.41,US,1630054896.0
285,huejucar,63.05,179.3167,48.69,69.0,100.0,9.69,RU,1630054896.0
286,tumannyy,69.3833,178.4167,31.57,92.0,75.0,5.17,RU,1630054896.0
287,olafsvik,25.2631,63.471,80.91,82.0,100.0,13.76,PK,1630054897.0
288,geraldton,33.7333,135.9833,85.91,74.0,4.0,0.6,JP,1630054897.0
289,cayenne,64.5667,143.2,53.74,89.0,100.0,5.93,RU,1630054897.0
290,avera,48.6499,-53.1147,57.11,83.0,66.0,18.28,CA,1630054898.0
291,beringovskiy,32.941,50.121,81.97,8.0,0.0,4.0,IR,1630054898.0
292,leningradskiy,4.7972,-75.995,66.0,98.0,100.0,1.52,CO,1630054899.0
293,pasni,42.0304,-8.1588,59.88,50.0,0.0,2.06,PT,1630054899.0
294,shingu,40.9965,15.6514,76.41,44.0,0.0,12.5,IT,1630054899.0
295,ust-nera,69.7008,170.3133,39.13,74.0,100.0,9.53,RU,1630054900.0
296,bonavista,-20.15,28.5833,79.93,17.0,0.0,11.3,ZW,1630054900.0
297,fereydunshahr,32.6333,-16.9667,76.12,69.0,20.0,5.75,PT,1630054901.0
298,ansermanuevo,-32.035,-52.0986,48.88,79.0,0.0,8.59,BR,1630054901.0
299,vila,57.4467,97.3217,75.78,41.0,65.0,5.1,RU,1630054901.0
300,melfi,31.3114,120.6181,89.47,77.0,87.0,6.98,CN,1630054902.0
301,pevek,54.1167,54.1167,74.89,26.0,29.0,13.62,RU,1630054902.0
302,bulawayo,65.9667,29.1833,50.04,62.0,0.0,2.3,FI,1630054903.0
303,camara de lobos,-2.9248,-39.9167,76.86,77.0,45.0,18.39,BR,1630054903.0
304,rio grande,20.931,-17.0347,73.76,72.0,19.0,15.03,MR,1630054903.0
305,chunoyar,0.5412,123.0595,77.72,93.0,100.0,1.54,ID,1630054904.0
306,belebey,24.3448,124.1572,84.09,77.0,10.0,9.51,JP,1630054905.0
307,kuusamo,-14.2667,50.1667,77.05,56.0,19.0,16.6,MG,1630054905.0
308,itarema,26.326,43.975,109.87,6.0,0.0,17.56,SA,1630054905.0
309,nouadhibou,64.2273,27.7285,53.65,62.0,0.0,8.05,FI,1630054906.0
310,gorontalo,64.3833,-173.3,42.21,73.0,37.0,7.05,RU,1630054907.0
311,sataua,13.0349,-9.4895,74.46,90.0,100.0,2.46,ML,1630054907.0
312,ishigaki,37.1041,-113.5841,81.54,20.0,1.0,3.44,US,1630054834.0
313,sambava,-17.7333,-149.15,75.22,71.0,14.0,16.53,PF,1630054908.0
314,buraydah,47.5702,-59.1367,65.5,96.0,85.0,8.9,CA,1630054908.0
315,kajaani,16.8634,-99.8901,74.08,96.0,100.0,16.26,MX,1630054908.0
316,kita,-20.4597,-66.825,29.91,23.0,60.0,9.91,BO,1630054909.0
317,saint george,-22.8167,47.8333,74.57,56.0,60.0,8.34,MG,1630054909.0
318,tautira,-25.2986,152.8535,63.03,55.0,1.0,11.68,AU,1630054910.0
319,channel-port aux basques,31.4044,30.4164,85.41,48.0,0.0,10.6,EG,1630054910.0
320,acapulco,-29.3353,-49.7269,56.82,86.0,77.0,4.68,BR,1630054911.0
321,karaul,70.9963,24.6622,52.68,77.0,73.0,32.37,NO,1630054911.0
322,uyuni,47.8043,67.7144,89.31,14.0,0.0,11.7,KZ,1630054911.0
323,farafangana,29.3669,-94.9669,79.97,93.0,97.0,1.01,US,1630054650.0
324,hervey bay,10.3744,10.7288,82.18,82.0,97.0,10.56,NG,1630054781.0
325,rosetta,67.6803,53.1512,49.86,67.0,99.0,14.09,RU,1630054912.0
326,torres,48.0,122.7167,68.07,75.0,41.0,0.49,CN,1630054913.0
327,aksu,18.9333,84.6,80.55,86.0,100.0,7.07,IN,1630054913.0
328,havoysund,-9.0763,143.2092,78.28,89.0,99.0,14.63,PG,1630054914.0
329,zhezkazgan,-21.6989,-57.8825,59.25,90.0,100.0,2.21,BR,1630054914.0
330,galveston,-16.5167,-151.75,79.12,68.0,16.0,13.47,PF,1630054915.0
331,zalantun,58.5,31.1999,60.17,87.0,100.0,10.29,RU,1630054915.0
332,sompeta,-21.05,31.6667,93.15,14.0,0.0,8.32,ZW,1630054916.0
333,daru,-5.85,34.95,82.22,19.0,7.0,8.16,TZ,1630054916.0
334,vaitape,9.285,105.7244,83.84,72.0,99.0,7.14,VN,1630054917.0
335,palabuhanratu,26.1247,127.6694,86.02,66.0,40.0,10.36,JP,1630054917.0
336,lolua,67.667,12.6934,57.27,80.0,1.0,11.07,NO,1630054918.0
337,pankovka,45.7625,106.2708,59.49,40.0,80.0,16.13,MN,1630054918.0
338,chiredzi,67.6333,134.6333,54.21,83.0,100.0,11.36,RU,1630054918.0
339,kilimatinde,9.9401,3.2108,71.15,95.0,100.0,2.86,BJ,1630054919.0
340,umzimvubu,30.3658,-88.5561,78.24,93.0,68.0,9.91,US,1630054919.0
341,bac lieu,51.8317,5.2819,66.94,74.0,86.0,13.02,NL,1630054831.0
342,itoman,22.9333,97.75,83.95,60.0,95.0,2.37,MM,1630054920.0
343,sorland,78.2186,15.6401,40.84,93.0,75.0,6.91,SJ,1630054920.0
344,batagay,-11.7833,19.9167,90.48,14.0,85.0,2.73,AO,1630054921.0
345,nikki,-34.7333,135.8667,57.76,68.0,65.0,17.98,AU,1630054921.0
346,neerijnen,10.5669,72.642,81.07,79.0,100.0,22.17,IN,1630054921.0
347,lashio,-19.9833,23.4167,87.62,14.0,0.0,11.92,BW,1630054922.0
348,longyearbyen,59.3833,143.3,58.15,90.0,69.0,8.79,RU,1630054923.0
349,luena,-6.3164,155.4848,68.59,97.0,100.0,2.64,PG,1630054923.0
350,port lincoln,36.5465,61.0543,99.68,12.0,0.0,14.99,IR,1630054924.0
351,dolbeau,-28.55,16.4333,54.07,73.0,89.0,14.99,NA,1630054924.0
352,maun,-17.397,32.2268,78.75,23.0,0.0,10.74,ZW,1630054925.0
353,rungata,17.0818,122.4157,84.18,71.0,97.0,6.87,PH,1630054925.0
354,panguna,-19.0595,-169.9187,71.42,55.0,93.0,21.39,NU,1630054926.0
355,hasanabad,46.6166,10.7002,67.91,50.0,7.0,4.74,IT,1630054926.0
356,oranjemund,-3.4833,23.4333,94.21,37.0,12.0,3.38,CD,1630054926.0
357,labutta,-16.4269,-51.8222,71.51,44.0,4.0,5.26,BR,1630054927.0
358,mutoko,51.0333,-4.2167,63.3,81.0,0.0,9.15,GB,1630054927.0
359,halalo,-45.8742,170.5036,45.81,87.0,100.0,10.94,NZ,1630054851.0
360,dicabisagan,43.4065,-124.2243,62.24,100.0,40.0,6.91,US,1630054928.0
361,alofi,50.0333,-113.5852,56.64,48.0,85.0,9.53,CA,1630054928.0
362,lasa,-3.7481,-73.2472,71.64,99.0,100.0,1.16,PE,1630054928.0
363,lodja,51.8572,-8.2992,61.84,82.0,20.0,9.22,IE,1630054929.0
364,piranhas,20.8947,-156.47,72.97,88.0,30.0,11.68,US,1630054929.0
365,northam,-8.8978,-35.1478,75.24,75.0,98.0,10.18,BR,1630054929.0
366,dunedin,51.3591,1.4394,64.62,68.0,78.0,5.99,GB,1630054930.0
367,north bend,-20.2333,164.0167,74.55,79.0,47.0,15.12,NC,1630054930.0
368,iquitos,44.7883,44.9228,91.62,29.0,6.0,5.61,RU,1630054931.0
369,cobh,-1.5233,-52.5817,73.24,97.0,75.0,3.15,BR,1630054931.0
370,kahului,-2.8731,-67.8022,74.07,81.0,18.0,2.98,BR,1630054932.0
371,broadstairs,67.8006,130.4114,42.98,90.0,100.0,6.24,RU,1630054932.0
372,poum,37.3413,-79.9431,73.9,93.0,1.0,0.0,US,1630054933.0
373,ngukurr,55.1009,14.7066,60.71,77.0,90.0,10.36,DK,1630054933.0
374,urozhaynoye,-38.2667,141.9667,46.96,71.0,3.0,6.85,AU,1630054933.0
375,inderborskiy,48.4001,-89.3168,59.56,78.0,75.0,10.36,CA,1630054748.0
376,almeirim,37.7333,-25.6667,70.52,78.0,75.0,13.8,PT,1630054720.0
377,tonantins,11.4045,-69.6734,78.03,87.0,45.0,13.35,VE,1630054934.0
378,barbar,36.5418,9.6633,87.1,31.0,0.0,1.54,TN,1630054935.0
379,hollins,-19.9309,-60.7718,58.46,58.0,78.0,2.37,PY,1630054935.0
380,ronne,51.3813,1.3862,64.26,75.0,84.0,5.99,GB,1630054935.0
381,codrington,0.3333,-79.4667,70.59,96.0,100.0,1.32,EC,1630054936.0
382,ponta delgada,10.9995,122.6711,82.08,85.0,95.0,6.04,PH,1630054936.0
383,coro,6.3711,126.1689,82.18,77.0,100.0,11.45,PH,1630054937.0
384,quballat,42.975,144.3747,64.18,90.0,100.0,4.99,JP,1630054937.0
385,louisbourg,49.7502,-77.6328,44.71,100.0,75.0,9.22,CA,1630054937.0
386,mayor pablo lagerenza,-19.8,-63.2167,50.31,41.0,10.0,3.78,BO,1630054938.0
387,margate,44.8324,-0.5141,70.92,68.0,0.0,6.91,FR,1630054938.0
388,rosa zarate,-32.4075,-63.2402,36.82,70.0,4.0,7.23,AR,1630054939.0
389,bacuit,2.0371,45.3438,79.93,73.0,1.0,16.67,SO,1630054939.0
390,dingle,-20.9373,55.2919,78.76,69.0,18.0,5.03,RE,1630054939.0
391,pundaguitan,10.0644,-72.545,73.53,89.0,55.0,5.08,VE,1630054940.0
392,kushiro,25.4833,103.7833,70.84,71.0,99.0,9.19,CN,1630054940.0
393,matagami,52.331,35.3711,66.06,71.0,100.0,11.59,RU,1630054940.0
394,charagua,5.3505,48.5268,85.12,58.0,16.0,25.23,SO,1630054941.0
395,floirac,41.9908,122.8253,80.85,68.0,11.0,10.0,CN,1630054941.0
396,villa maria,68.6073,31.7962,57.33,52.0,10.0,11.41,RU,1630054941.0
397,mogadishu,57.1167,8.6167,60.62,82.0,91.0,31.88,DK,1630054942.0
398,le port,-38.5473,-58.7368,44.33,69.0,6.0,18.48,AR,1630054813.0
399,machiques,-5.1783,-40.6775,72.84,73.0,7.0,6.06,BR,1630054831.0
400,qujing,56.45,138.1667,61.23,74.0,100.0,6.98,RU,1630054942.0
401,zheleznogorsk,31.7765,111.8386,68.43,95.0,100.0,1.48,CN,1630054943.0
402,hobyo,-14.4667,132.2667,89.92,12.0,40.0,8.05,AU,1630054943.0
403,xinmin,-6.1349,12.3689,74.07,86.0,100.0,9.93,AO,1630054943.0
404,verkhnetulomskiy,60.3964,-1.353,55.31,80.0,50.0,7.94,GB,1630054944.0
405,hanstholm,6.4965,2.6036,81.75,73.0,92.0,8.68,BJ,1630054944.0
406,necochea,26.5,74.55,92.01,38.0,94.0,11.1,IN,1630054945.0
407,crateus,32.1167,20.0667,85.51,50.0,0.0,7.63,LY,1630054945.0
408,ayan,-24.1333,19.1167,63.93,16.0,0.0,12.95,NA,1630054945.0
409,nanzhang,-12.7406,-60.1458,70.23,49.0,72.0,3.29,BR,1630054946.0
410,katherine,49.2413,-124.8028,60.15,86.0,90.0,1.99,CA,1630054691.0
411,soyo,-5.1833,-68.9,74.08,79.0,61.0,1.97,BR,1630054946.0
412,brae,41.0002,-115.5012,58.64,27.0,0.0,1.01,US,1630054828.0
413,porto novo,46.4154,3.9054,64.47,79.0,75.0,2.3,FR,1630054947.0
414,pushkar,-12.0432,-77.0282,57.13,90.0,57.0,3.65,PE,1630054864.0
415,benghazi,68.75,161.3,51.35,52.0,100.0,6.89,RU,1630054947.0
416,methala,10.1483,-85.452,73.27,96.0,93.0,3.8,CR,1630054835.0
417,aranos,-4.5061,-73.5757,71.67,96.0,93.0,2.3,PE,1630054948.0
418,vilhena,58.1286,68.5944,63.99,57.0,100.0,7.27,RU,1630054948.0
419,port alberni,-33.4166,149.5806,43.97,75.0,10.0,7.49,AU,1630054948.0
420,jutai,58.3631,82.8265,80.87,46.0,13.0,2.62,RU,1630054949.0
421,elko,16.7833,94.7333,83.07,79.0,100.0,8.03,MM,1630054949.0
422,saint-francois,26.1842,127.7558,85.28,66.0,40.0,10.36,JP,1630054949.0
423,lima,32.6881,128.8419,81.36,82.0,8.0,11.72,JP,1630054950.0
424,cherskiy,16.0678,108.2208,89.65,66.0,20.0,11.5,VN,1630054950.0
425,nicoya,43.7501,-81.7165,67.91,75.0,79.0,10.49,CA,1630054892.0
426,nauta,14.6937,-17.4441,81.48,83.0,51.0,7.16,SN,1630054951.0
427,abalak,34.0556,-117.1825,86.27,30.0,1.0,0.0,US,1630054875.0
428,bathurst,-10.1667,123.5833,81.93,65.0,96.0,15.73,ID,1630054913.0
429,togur,64.5011,-165.4064,35.17,86.0,11.0,8.43,US,1630054951.0
430,pathein,-17.7125,-39.2481,70.81,85.0,25.0,7.76,BR,1630054952.0
431,nishihara,26.5579,54.8807,102.43,33.0,3.0,11.56,IR,1630054952.0
432,turan,39.1502,-123.2078,73.04,67.0,0.0,3.29,US,1630054811.0
433,goderich,47.1453,134.3383,71.58,75.0,92.0,8.21,RU,1630054953.0
434,dakar,41.8666,-103.6672,68.77,61.0,1.0,1.99,US,1630054953.0
435,redlands,-10.4544,161.9205,78.58,85.0,50.0,11.27,SB,1630054953.0
436,nome,38.4953,102.1739,71.31,30.0,65.0,12.06,CN,1630054954.0
437,caravelas,50.3643,108.7512,62.69,57.0,100.0,3.31,RU,1630054954.0
438,bandar-e lengeh,22.9758,-82.9219,77.31,86.0,100.0,10.0,CU,1630054955.0
439,artyk,22.5667,59.5289,92.17,51.0,16.0,8.97,OM,1630054955.0
440,ukiah,21.6422,69.6093,84.06,70.0,100.0,13.69,IN,1630054955.0
441,lermontovka,-0.3167,102.35,83.52,75.0,99.0,4.5,ID,1630054956.0
442,kirakira,5.7833,36.5667,81.95,37.0,11.0,3.69,ET,1630054956.0
443,tapaua,59.7,150.1667,53.01,99.0,100.0,3.94,RU,1630054957.0
444,jinchang,-3.2778,-39.2689,76.33,76.0,34.0,13.76,BR,1630054815.0
445,krasnyy chikoy,24.755,79.0681,89.73,56.0,95.0,3.83,IN,1630054957.0
446,cabanas,32.65,-17.0667,76.12,67.0,25.0,3.85,PT,1630054958.0
447,sur,-41.1456,-71.3082,24.64,94.0,100.0,2.51,AR,1630054838.0
448,porbandar,68.5333,146.4167,59.14,48.0,100.0,13.38,RU,1630054958.0
449,japura,-7.8447,-79.1469,61.54,90.0,56.0,5.93,PE,1630054958.0
450,mys shmidta,43.3376,-6.4145,85.57,53.0,50.0,3.78,ES,1630054959.0
451,bako,3.8653,-67.9239,71.96,98.0,100.0,1.57,CO,1630054959.0
452,arman,-3.1374,142.3475,80.02,84.0,13.0,7.43,PG,1630054960.0
453,baldeogarh,4.8699,-2.2405,79.92,76.0,100.0,8.37,GH,1630054960.0
454,ribeira brava,-0.7193,8.7815,77.41,82.0,86.0,10.02,GA,1630054960.0
455,san carlos de bariloche,-3.8,103.5333,90.64,38.0,40.0,4.72,ID,1630054961.0
456,chicama,64.1835,-51.7216,41.95,84.0,100.0,11.79,GL,1630054804.0
457,tineo,-39.0333,177.3667,54.61,69.0,100.0,1.99,NZ,1630054962.0
458,inirida,8.0942,-74.7757,72.3,100.0,100.0,1.34,CO,1630054962.0
459,aitape,39.8885,4.2658,81.16,74.0,20.0,9.22,ES,1630054962.0
460,jiddah,7.3833,8.5667,73.51,94.0,100.0,3.44,NG,1630054963.0
461,axim,25.9167,-109.1833,83.68,78.0,85.0,4.41,MX,1630054963.0
462,shymkent,21.2311,-86.731,75.25,82.0,3.0,2.28,MX,1630054963.0
463,port-gentil,55.0593,-3.2665,58.87,71.0,4.0,6.46,GB,1630054964.0
464,lahat,47.6666,-52.7314,56.57,92.0,13.0,1.01,CA,1630054829.0
465,karkaralinsk,18.6667,-88.3833,72.52,95.0,59.0,3.85,MX,1630054964.0
466,nuuk,57.3707,22.5919,62.02,88.0,87.0,10.76,LV,1630054965.0
467,wairoa,-20.5167,57.5167,70.36,85.0,92.0,22.53,MU,1630054965.0
468,nechi,71.0357,27.8492,57.11,69.0,99.0,26.69,NO,1630054965.0
469,mao,-8.1181,111.8935,79.45,66.0,29.0,11.86,ID,1630054966.0
470,yaan,25.0209,118.2898,88.92,67.0,30.0,6.35,CN,1630054966.0
471,ahome,-9.9133,-63.0408,76.84,57.0,68.0,3.47,BR,1630054824.0
472,isla mujeres,-33.0333,137.5833,60.24,41.0,7.0,14.52,AU,1630054966.0
473,ecclefechan,36.6177,-121.9166,62.76,94.0,6.0,3.0,US,1630054804.0
474,torbay,51.226,-58.6502,60.98,97.0,100.0,19.39,CA,1630054967.0
475,bacalar,34.0917,49.6892,88.95,11.0,0.0,7.85,IR,1630054967.0
476,souillac,35.3029,37.1841,97.59,13.0,0.0,6.46,SY,1630054968.0
477,mehamn,5.8933,95.3214,83.23,73.0,83.0,16.17,ID,1630054968.0
478,boyolangu,54.8318,99.1328,70.59,38.0,63.0,7.49,RU,1630054968.0
479,ariquemes,36.8886,4.1198,83.37,47.0,0.0,3.94,DZ,1630054969.0
480,whyalla,32.4488,-81.7832,78.33,88.0,40.0,0.0,US,1630054969.0
481,pacific grove,9.5201,-84.3225,82.26,94.0,100.0,3.09,CR,1630054970.0
482,saint-augustin,46.2198,-64.5411,64.92,100.0,20.0,6.91,CA,1630054970.0
483,arak,4.8005,18.1275,84.33,71.0,86.0,1.9,CF,1630054970.0
484,khonuu,-22.9194,-42.8186,73.31,92.0,50.0,9.26,BR,1630054895.0
485,abu samrah,-8.4592,-76.4633,68.56,83.0,77.0,1.79,PE,1630054971.0
486,sabang,43.2,51.65,88.48,31.0,0.0,7.65,KZ,1630054971.0
487,shumskiy,9.3328,-69.1208,70.95,95.0,8.0,3.74,VE,1630054972.0
488,lalomanu,1.3349,-74.8429,70.09,99.0,100.0,0.07,CO,1630054972.0
489,statesboro,20.3467,-74.4958,78.8,86.0,100.0,5.5,CU,1630054973.0
490,parrita,15.1718,44.3244,78.28,20.0,10.0,16.08,YE,1630054973.0
491,shediac,39.9337,69.57,89.08,14.0,11.0,9.17,KG,1630054973.0
492,boali,15.451,36.4,86.2,53.0,96.0,10.42,SD,1630054974.0
493,marica,51.2585,-80.6094,40.21,82.0,0.0,4.25,CA,1630054974.0
494,kuryk,35.0333,71.3581,92.35,35.0,3.0,8.5,AF,1630054974.0
495,cartagena del chaira,61.0296,76.1136,60.82,55.0,83.0,14.61,RU,1630054975.0
496,kamenskoye,1.3292,172.9752,84.2,74.0,20.0,6.91,KI,1630054975.0
497,baracoa,5.6667,73.0,82.62,75.0,56.0,15.39,MV,1630054976.0
498,sayyan,48.3746,-123.7276,60.3,88.0,78.0,9.13,CA,1630054976.0
499,suluktu,5.8833,-55.0833,77.02,90.0,77.0,5.23,SR,1630054977.0
500,kassala,70.2396,22.3479,55.47,52.0,95.0,3.89,NO,1630054977.0
501,moose factory,44.0787,-80.2041,67.28,94.0,69.0,7.45,CA,1630054977.0
502,toliary,70.9821,25.9704,53.35,71.0,40.0,20.71,NO,1630054978.0
503,asmar,38.1711,13.2393,86.94,60.0,40.0,5.99,IT,1630054978.0
504,saleaula,-8.2011,-35.5647,65.89,89.0,25.0,6.51,BR,1630054979.0
505,megion,24.0934,32.907,103.55,15.0,0.0,12.73,EG,1630054979.0
506,bairiki,39.2667,141.8833,75.34,88.0,57.0,1.03,JP,1630054979.0
507,ugoofaaru,-24.7081,-47.5553,64.31,87.0,100.0,9.17,BR,1630054980.0
508,muyezerskiy,43.0645,44.7417,82.54,48.0,2.0,2.24,RU,1630054980.0
509,sooke,-8.103,156.8419,82.56,77.0,70.0,12.01,SB,1630054980.0
510,nieuw amsterdam,48.8899,24.0629,62.69,76.0,100.0,2.1,UA,1630054981.0
511,oksfjord,46.95,128.05,63.61,93.0,85.0,9.28,CN,1630054981.0
512,shelburne,-35.1667,173.1667,58.68,93.0,100.0,17.36,NZ,1630054982.0
513,honningsvag,-6.2167,149.55,77.7,87.0,100.0,8.52,PG,1630054982.0
514,capaci,10.9333,108.1,83.7,69.0,100.0,2.19,VN,1630054982.0
515,gravata,67.45,153.6833,49.59,85.0,100.0,5.7,RU,1630054983.0
516,aswan,0.5333,72.9333,82.83,74.0,14.0,8.88,MV,1630054983.0
517,kamaishi,31.6074,-81.8854,78.82,88.0,1.0,0.0,US,1630054984.0
518,iguape,-38.9516,-68.0591,41.56,56.0,82.0,7.31,AR,1630054984.0
519,oktyabrskoye,-3.6667,152.4333,80.04,82.0,21.0,9.46,PG,1630054985.0
520,gizo,-20.0064,57.6608,70.38,89.0,67.0,14.0,MU,1630054985.0
521,spas,31.61,34.7642,96.4,41.0,5.0,10.71,IL,1630054890.0
522,tieli,52.9995,31.6023,62.51,96.0,100.0,1.95,RU,1630054986.0
523,ahipara,-5.0892,-81.1144,62.29,89.0,100.0,12.03,PE,1630054986.0
524,kandrian,7.1913,8.1329,76.66,87.0,98.0,2.44,NG,1630054986.0
525,srednekolymsk,12.2833,-10.9667,76.87,89.0,98.0,1.41,ML,1630054987.0
526,thinadhoo,35.9273,-89.919,76.98,88.0,1.0,5.75,US,1630054987.0
527,jesup,-34.4833,-54.3333,46.51,60.0,2.0,9.44,UY,1630054988.0
528,neuquen,-10.2621,29.9271,85.51,22.0,5.0,5.48,ZM,1630054988.0
529,namatanai,65.5833,-171.0,38.39,71.0,7.0,4.88,RU,1630054988.0
530,grand gaube,67.4667,86.5833,51.8,72.0,70.0,22.68,RU,1630054989.0
531,gat,60.7161,-135.0538,49.1,87.0,92.0,5.46,CA,1630054989.0
532,krasnaya gora,5.4112,100.3354,87.89,65.0,20.0,1.01,MY,1630054902.0
533,paita,17.9833,74.4333,86.85,51.0,82.0,8.32,IN,1630054990.0
534,otukpo,-13.8833,167.55,78.84,71.0,100.0,22.57,VU,1630054877.0
535,tapanatepec,39.2446,55.5154,98.37,24.0,0.0,3.96,TM,1630054990.0
536,dire,18.4411,1.4078,92.53,31.0,78.0,6.85,ML,1630054991.0
537,blytheville,25.5559,89.6715,80.24,89.0,100.0,4.7,BD,1630054991.0
538,rocha,27.9378,-82.2859,79.02,94.0,40.0,3.0,US,1630054864.0
539,luwingu,24.8333,-104.8333,58.05,84.0,13.0,3.15,MX,1630054848.0
540,lavrentiya,66.0317,60.1659,50.27,65.0,100.0,12.86,RU,1630054992.0
541,igarka,61.994,-49.6678,42.73,84.0,51.0,11.88,GL,1630054992.0
542,whitehorse,31.3667,-106.0167,80.56,46.0,0.0,8.55,MX,1630054992.0
543,georgetown,12.1791,125.5072,82.94,79.0,98.0,7.92,PH,1630054993.0
544,sola,44.3525,143.3525,70.07,81.0,77.0,4.0,JP,1630054993.0
545,gazanjyk,-23.3156,-46.2214,61.9,89.0,100.0,5.21,BR,1630054994.0
546,kidal,-0.4536,39.6401,86.25,46.0,48.0,20.96,KE,1630054994.0
547,chilmari,-1.195,-46.02,77.0,85.0,87.0,7.45,BR,1630054994.0
548,brandon,32.3883,120.5553,77.43,90.0,100.0,8.23,CN,1630054995.0
549,durango,47.1842,35.1088,82.69,42.0,79.0,8.86,UA,1630054995.0
550,inta,-8.2578,-49.2647,73.8,62.0,100.0,1.68,BR,1630054995.0
551,paamiut,27.4833,94.9,75.38,96.0,100.0,6.26,IN,1630054996.0
552,praxedis guerrero,32.7376,-101.951,70.86,61.0,1.0,7.0,US,1630054996.0
553,san policarpo,60.1247,64.7758,58.64,52.0,87.0,9.37,RU,1630054997.0
554,ksenyevka,-17.1717,-71.7931,58.19,86.0,82.0,7.45,PE,1630054997.0
555,mombetsu,8.2,-59.7833,73.65,97.0,23.0,2.15,GY,1630054994.0
556,santa isabel,22.2006,113.5461,88.81,74.0,40.0,11.5,MO,1630054715.0
557,half moon bay,50.0178,6.0933,58.48,82.0,73.0,12.08,LU,1630054998.0
558,garissa,42.7846,75.6892,79.05,31.0,69.0,4.21,KG,1630054998.0
559,carutapera,6.8833,73.1,82.67,76.0,99.0,17.09,MV,1630054998.0
560,rucheng,21.3333,71.3,90.0,49.0,97.0,12.82,IN,1630054999.0
561,tymoshivka,44.6453,-63.5724,67.89,88.0,6.0,6.96,CA,1630054992.0
562,conceicao do araguaia,18.65,-74.1167,79.74,71.0,100.0,4.45,HT,1630054999.0
563,dibrugarh,51.139,39.4021,75.11,38.0,100.0,11.97,RU,1630054999.0
564,lamesa,50.7587,59.5386,91.04,18.0,7.0,7.38,RU,1630055000.0
565,uray,-24.7,44.75,86.68,21.0,0.0,10.87,MG,1630055000.0
566,punta de bombon,29.5667,-104.4167,83.41,44.0,75.0,9.22,MX,1630055001.0
567,mabaruma,-9.4431,147.1797,78.04,88.0,56.0,11.83,PG,1630054934.0
568,macau,6.6592,7.7596,78.3,85.0,100.0,1.3,NG,1630055001.0
569,hosingen,-3.3667,135.4833,78.03,85.0,98.0,1.83,ID,1630055001.0
