,Name,Latitude,Longitude,Max_Temp,Humidity,Cloudiness,Wind_Speed,Country,Date
0,arraial do cabo,-22.9661,-42.0278,87.76,40.0,0.0,23.02,BR,1629999833.0
1,jamsa,61.8642,25.19,56.14,80.0,93.0,11.07,FI,1629999833.0
2,busselton,-33.65,115.3333,47.08,51.0,58.0,17.13,AU,1629999834.0
3,abu samrah,35.3029,37.1841,87.39,27.0,0.0,8.93,SY,1629999834.0
4,ipixuna,-1.7625,-48.8043,85.95,51.0,94.0,4.99,BR,1629999835.0
5,horodyshche,49.2849,31.4451,59.05,97.0,100.0,5.35,UA,1629999835.0
6,mataura,-46.1927,168.8643,42.48,99.0,100.0,1.79,NZ,1629999835.0
7,talcahuano,-36.7167,-73.1167,56.88,58.0,20.0,11.5,CL,1629999836.0
8,bredasdorp,-34.5322,20.0403,52.92,87.0,91.0,18.41,ZA,1629999836.0
9,mahebourg,-20.4081,57.7,70.09,73.0,40.0,10.36,MU,1629999836.0
10,moerai,-22.4333,-151.3333,75.13,78.0,91.0,19.37,PF,1629999837.0
11,muli,2.9167,73.5667,82.58,77.0,55.0,14.43,MV,1629999837.0
12,thompson,55.7435,-97.8558,64.56,42.0,20.0,13.8,CA,1629999838.0
13,diglur,18.55,77.6,76.51,85.0,99.0,5.57,IN,1629999838.0
14,georgetown,5.4112,100.3354,80.89,88.0,20.0,2.3,MY,1629999797.0
15,sao joao da barra,-21.6403,-41.0511,84.29,72.0,0.0,24.23,BR,1629999838.0
16,tuatapere,-46.1333,167.6833,42.82,94.0,100.0,2.82,NZ,1629999839.0
17,ushuaia,-54.8,-68.3,38.86,38.0,0.0,0.0,AR,1629999608.0
18,okahandja,-21.9833,16.9167,79.11,20.0,0.0,14.23,NA,1629999839.0
19,nanortalik,60.1432,-45.2371,46.04,83.0,72.0,16.04,GL,1629999840.0
20,fortuna,40.5982,-124.1573,66.85,81.0,20.0,3.0,US,1629999840.0
21,vaini,-21.2,-175.2,64.56,82.0,75.0,10.36,TO,1629999840.0
22,rikitea,-23.1203,-134.9692,71.58,70.0,59.0,12.41,PF,1629999841.0
23,albany,42.6001,-73.9662,92.14,67.0,90.0,2.04,US,1629999692.0
24,westport,41.1415,-73.3579,96.06,60.0,1.0,1.99,US,1629999841.0
25,bengkulu,-3.8004,102.2655,74.77,88.0,7.0,5.84,ID,1629999842.0
26,saint-philippe,-21.3585,55.7679,69.35,78.0,35.0,14.2,RE,1629999842.0
27,shahrud,36.4182,54.9763,75.78,57.0,9.0,7.11,IR,1629999842.0
28,yar-sale,66.8333,70.8333,43.9,96.0,100.0,14.65,RU,1629999843.0
29,cape town,-33.9258,18.4232,52.21,87.0,90.0,4.0,ZA,1629999264.0
30,saskylakh,71.9167,114.0833,36.73,88.0,100.0,17.16,RU,1629999843.0
31,brownsville,25.9018,-97.4975,93.15,54.0,75.0,11.5,US,1629999844.0
32,punta arenas,-53.15,-70.9167,42.91,65.0,40.0,12.66,CL,1629999844.0
33,new norfolk,-42.7826,147.0587,45.91,90.0,94.0,1.45,AU,1629999844.0
34,tiksi,71.6872,128.8694,41.22,98.0,100.0,15.9,RU,1629999845.0
35,fort nelson,58.8053,-122.7002,58.59,72.0,75.0,0.0,CA,1629999684.0
36,vuktyl,63.8567,57.3094,44.46,93.0,93.0,7.27,RU,1629999845.0
37,isangel,-19.55,169.2667,70.95,76.0,17.0,12.95,VU,1629999845.0
38,hermanus,-34.4187,19.2345,50.81,90.0,90.0,19.86,ZA,1629999781.0
39,souillac,-20.5167,57.5167,70.18,73.0,40.0,10.36,MU,1629999846.0
40,krasnoselkup,65.7,82.4667,61.3,93.0,100.0,17.81,RU,1629999847.0
41,khatanga,71.9667,102.5,34.47,87.0,94.0,3.71,RU,1629999847.0
42,lagoa,39.05,-27.9833,68.97,61.0,50.0,15.19,PT,1629999847.0
43,qaanaaq,19.7297,-155.09,76.8,83.0,75.0,6.91,US,1629999706.0
44,hilo,39.447,-86.1758,91.24,69.0,94.0,1.45,US,1629999848.0
45,bud,-25.2406,130.9889,46.24,36.0,68.0,0.0,AU,1629999848.0
46,yulara,14.8961,-24.4956,77.52,89.0,100.0,9.8,CV,1629999849.0
47,sao filipe,-33.5906,26.891,63.18,86.0,53.0,13.58,ZA,1629999849.0
48,port alfred,20.3467,-74.4958,86.32,65.0,92.0,10.6,CU,1629999849.0
49,baracoa,5.3505,48.5268,78.03,83.0,25.0,23.47,SO,1629999850.0
50,hobyo,26.9167,87.9167,69.53,96.0,100.0,2.55,NP,1629999850.0
51,ilam,38.6105,-122.8692,90.01,15.0,0.0,2.1,US,1629999850.0
52,healdsburg,66.1451,-65.7125,44.6,81.0,75.0,12.66,CA,1629999851.0
53,pangnirtung,42.8,93.45,79.27,17.0,99.0,2.91,CN,1629999851.0
54,hami,-42.8794,147.3294,46.26,95.0,75.0,5.75,AU,1629999559.0
55,hobart,42.0304,-8.1588,72.7,60.0,73.0,2.93,PT,1629999852.0
56,vila,-33.918,25.5701,61.09,82.0,0.0,3.44,ZA,1629999852.0
57,port elizabeth,69.2167,-51.1,44.62,81.0,75.0,4.61,GL,1629999852.0
58,ilulissat,-21.35,165.15,69.44,83.0,34.0,4.79,NC,1629999853.0
59,poya,62.5353,113.9611,45.55,80.0,100.0,10.18,RU,1629999853.0
60,mirnyy,-33.8667,121.9,44.44,81.0,52.0,23.78,AU,1629999854.0
61,kegayli,-38.2667,141.9667,41.22,95.0,94.0,6.42,AU,1629999854.0
62,codrington,35.1333,140.3,82.51,95.0,93.0,1.74,JP,1629999854.0
63,katsuura,55.3121,76.7647,67.32,63.0,0.0,8.28,RU,1629999855.0
64,chany,-15.8631,-38.8828,80.6,69.0,27.0,10.47,BR,1629999855.0
65,belmonte,50.6789,156.125,53.44,85.0,100.0,7.05,RU,1629999856.0
66,severo-kurilsk,15.1718,44.3244,72.75,28.0,70.0,12.37,YE,1629999856.0
67,sayyan,63.7506,-68.5145,42.53,81.0,75.0,5.75,CA,1629999856.0
68,iqaluit,42.097,-79.2353,85.01,62.0,93.0,4.0,US,1629999853.0
69,jamestown,-37.6167,-73.65,49.87,77.0,85.0,3.78,CL,1629999621.0
70,lebu,39.7008,122.9911,69.46,81.0,100.0,6.93,CN,1629999857.0
71,attawapiskat,39.2209,-3.608,92.03,19.0,10.0,4.79,ES,1629999857.0
72,villarrubia de los ojos,62.1564,-7.1664,50.92,100.0,90.0,4.61,FO,1629999858.0
73,vestmanna,64.5401,40.5433,46.51,87.0,75.0,2.24,RU,1629999858.0
74,arkhangelsk,-34.6,138.7333,45.36,87.0,5.0,6.29,AU,1629999831.0
75,warqla,-33.6971,-53.4616,60.76,43.0,0.0,3.56,UY,1629999859.0
76,samusu,-33.0153,27.9116,63.54,94.0,20.0,3.44,ZA,1629999859.0
77,east london,70.4692,-68.5914,43.03,70.0,90.0,6.91,CA,1629999860.0
78,clyde river,54.4299,31.8996,58.42,96.0,100.0,5.5,RU,1629999860.0
79,sobolevo,-24.8667,113.6333,62.67,71.0,0.0,16.11,AU,1629999860.0
80,carnarvon,64.8569,-147.8028,51.75,93.0,75.0,4.61,US,1629999687.0
81,college,-19.0595,-169.9187,64.29,77.0,45.0,6.91,NU,1629999861.0
82,alofi,-20.3167,118.5667,60.85,72.0,61.0,0.0,AU,1629999861.0
83,port hedland,56.6709,124.6491,46.87,92.0,100.0,4.34,RU,1629999862.0
84,neryungri,-20.7833,117.1333,73.24,37.0,65.0,12.15,AU,1629999862.0
85,roebourne,18.4411,1.4078,98.11,25.0,24.0,0.98,ML,1629999862.0
86,kidal,-2.6741,141.3028,76.75,90.0,81.0,6.31,PG,1629999863.0
87,vanimo,26.9167,94.7333,74.89,99.0,100.0,4.12,IN,1629999863.0
88,nazira,14.3,-91.9167,89.76,75.0,71.0,7.11,GT,1629999863.0
89,champerico,71.2906,-156.7887,39.22,93.0,90.0,12.66,US,1629999864.0
90,deputatskiy,8.1222,-63.5497,93.22,43.0,26.0,7.85,VE,1629999864.0
91,barrow,41.3712,-73.414,94.1,61.0,20.0,4.0,US,1629999864.0
92,ciudad bolivar,37.4636,-122.4286,79.54,72.0,20.0,3.44,US,1629999864.0
93,bethel,54.9417,58.8083,55.8,96.0,25.0,2.3,RU,1629999865.0
94,half moon bay,16.1833,121.25,65.68,95.0,97.0,2.95,PH,1629999865.0
95,bakal,65.282,-126.8329,53.64,100.0,75.0,2.3,CA,1629999866.0
96,belance,44.1667,66.75,81.81,18.0,40.0,5.91,KZ,1629999866.0
97,norman wells,30.95,-110.3,88.77,26.0,4.0,4.9,MX,1629999828.0
98,shieli,18.4275,-66.4921,92.41,66.0,46.0,17.38,PR,1629999639.0
99,cananea,53.3925,-2.5802,69.85,64.0,0.0,3.0,GB,1629999867.0
100,manati,-8.9266,125.4092,57.09,85.0,83.0,3.47,TL,1629999867.0
101,warrington,20.1986,1.0114,77.9,60.0,62.0,27.58,ML,1629999868.0
102,airai,55.5336,-5.1296,71.56,86.0,53.0,2.53,GB,1629999868.0
103,tessalit,-15.1961,12.1522,62.96,78.0,39.0,12.53,AO,1629999868.0
104,lamlash,47.6666,-52.7314,63.37,75.0,20.0,8.05,CA,1629999869.0
105,namibe,68.75,161.3,39.27,86.0,81.0,5.91,RU,1629999869.0
106,torbay,-21.2078,-159.775,64.45,100.0,90.0,1.14,CK,1629999869.0
107,avarua,55.0318,36.744,65.17,98.0,100.0,4.68,RU,1629999870.0
108,louisbourg,62.456,-114.3525,63.12,72.0,75.0,8.05,CA,1629999795.0
109,zhukovo,-16.4833,-151.75,79.09,60.0,88.0,15.37,PF,1629999870.0
110,yellowknife,-30.1811,-50.2056,58.1,82.0,99.0,7.87,BR,1629999871.0
111,faanui,53.8833,25.2997,54.57,83.0,100.0,4.25,BY,1629999871.0
112,cidreira,-46.6,168.3333,42.8,73.0,99.0,6.91,NZ,1629999871.0
113,lida,26.7292,33.9365,94.71,37.0,0.0,15.19,EG,1629999872.0
114,bluff,-29.1211,26.214,60.28,55.0,20.0,17.27,ZA,1629999872.0
115,maghama,70.3705,31.1107,55.6,71.0,0.0,11.5,NO,1629999873.0
116,mys shmidta,33.194,-82.5271,90.68,45.0,10.0,6.22,US,1629999873.0
117,vardo,-35.3333,-72.4167,55.67,57.0,25.0,8.41,CL,1629999873.0
118,avera,-8.103,156.8419,81.41,76.0,74.0,9.24,SB,1629999874.0
119,constitucion,-4.9,35.7833,67.24,33.0,6.0,8.75,TZ,1629999874.0
120,gizo,31.7965,-106.58,91.45,40.0,1.0,5.99,US,1629999875.0
121,kondoa,-34.7333,135.8667,48.83,69.0,7.0,12.77,AU,1629999875.0
122,sunland park,38.5167,-28.7,73.8,56.0,20.0,11.5,PT,1629999876.0
123,port lincoln,69.4541,-133.0374,53.6,94.0,75.0,11.5,CA,1629999876.0
124,tuktoyaktuk,55.6717,84.3981,61.7,84.0,17.0,8.14,RU,1629999877.0
125,vaitupu,-23.3833,150.5,48.09,87.0,0.0,0.0,AU,1629999877.0
126,bolotnoye,7.9803,49.8164,77.7,83.0,82.0,24.16,SO,1629999877.0
127,rockhampton,49.2167,143.1167,58.89,97.0,100.0,5.28,RU,1629999878.0
128,poronaysk,21.3469,-158.0858,77.32,74.0,90.0,3.44,US,1629999853.0
129,illoqqortoormiut,15.1333,-23.2167,84.99,83.0,89.0,13.0,CV,1629999878.0
130,makakilo city,4.4148,114.0089,75.34,94.0,40.0,2.3,MY,1629999879.0
131,vila do maio,60.9167,-46.05,59.22,59.0,79.0,6.82,GL,1629999879.0
132,miri,-9.8,-139.0333,77.86,70.0,64.0,21.39,PF,1629999879.0
133,narsaq,22.8909,-109.9124,96.19,60.0,40.0,0.0,MX,1629999880.0
134,atuona,23.1935,116.6142,78.69,87.0,0.0,1.14,CN,1629999880.0
135,cabo san lucas,11.2833,-15.8333,81.03,71.0,97.0,3.02,GW,1629999881.0
136,pevek,32.6667,-17.1,80.01,75.0,12.0,7.18,PT,1629999881.0
137,haimen,-38.0023,-57.5575,66.22,24.0,0.0,23.02,AR,1629999881.0
138,bubaque,4.7084,6.7931,75.02,92.0,100.0,5.91,NG,1629999882.0
139,ponta do sol,37.1041,-113.5841,99.07,23.0,1.0,1.01,US,1629999707.0
140,mar del plata,14.0351,-83.3888,89.56,70.0,40.0,9.22,NI,1629999882.0
141,abonnema,-46.2817,169.8464,43.61,93.0,100.0,2.77,NZ,1629999882.0
142,saint george,22.0752,-159.319,77.32,75.0,90.0,13.8,US,1629999883.0
143,puerto cabezas,44.3114,-96.7984,68.41,82.0,90.0,17.27,US,1629999821.0
144,kaitangata,72.7868,-56.1549,38.61,97.0,100.0,13.78,GL,1629999883.0
145,kapaa,-51.6226,-69.2181,42.85,56.0,75.0,13.8,AR,1629999884.0
146,brookings,3.0707,172.7902,82.53,75.0,100.0,12.95,KI,1629999884.0
147,upernavik,63.05,179.3167,45.0,75.0,4.0,9.4,RU,1629999884.0
148,rio gallegos,61.2767,108.0108,44.06,82.0,12.0,4.23,RU,1629999885.0
149,butaritari,70.6333,147.9167,47.91,71.0,100.0,9.75,RU,1629999885.0
150,beringovskiy,52.2873,17.8719,58.82,66.0,94.0,4.38,PL,1629999885.0
151,chokurdakh,-2.0226,147.2712,80.78,79.0,96.0,8.41,PG,1629999886.0
152,slupca,-20.3428,57.7575,70.05,73.0,40.0,10.36,MU,1629999886.0
153,ondorhaan,35.8419,14.5431,86.61,51.0,0.0,13.8,MT,1629999887.0
154,lorengau,8.6226,-70.2075,76.69,58.0,99.0,6.73,VE,1629999887.0
155,bambous virieux,20.7,-105.2,88.23,79.0,75.0,6.91,MX,1629999787.0
156,marsaxlokk,59.5833,151.2833,53.4,96.0,100.0,2.93,RU,1629999888.0
157,barinas,-41.8697,-73.8203,47.43,64.0,100.0,8.97,CL,1629999861.0
158,ixtapa,51.3813,1.3862,64.31,63.0,81.0,5.99,GB,1629999888.0
159,ola,48.8264,58.1442,80.98,24.0,12.0,6.49,KZ,1629999889.0
160,ancud,25.1216,62.3254,79.7,92.0,82.0,3.58,PK,1629999889.0
161,margate,-33.0117,17.9442,51.85,87.0,100.0,18.45,ZA,1629999889.0
162,emba,-14.5428,40.6728,70.57,85.0,0.0,4.88,MZ,1629999890.0
163,gwadar,63.7898,74.523,55.69,88.0,87.0,20.4,RU,1629999890.0
164,saldanha,30.4397,48.1664,103.96,13.0,0.0,11.5,IR,1629999891.0
165,muravlenko,18.6667,105.6667,77.2,91.0,45.0,4.54,VN,1629999891.0
166,khorramshahr,-0.7393,-90.3518,76.96,80.0,77.0,8.01,EC,1629999892.0
167,atka,-17.7333,-149.15,77.02,75.0,84.0,14.74,PF,1629999892.0
168,vinh,62.2266,-6.589,52.72,93.0,99.0,2.15,FO,1629999892.0
169,puerto ayora,65.6145,-37.6368,50.16,92.0,100.0,10.36,GL,1629999893.0
170,tautira,5.3833,-52.95,83.75,67.0,29.0,6.8,GF,1629999893.0
171,klaksvik,-14.4086,-56.4461,97.97,19.0,72.0,9.13,BR,1629999893.0
172,tasiilaq,-9.4333,159.95,75.13,84.0,77.0,6.58,SB,1629999894.0
173,sinnamary,26.5412,-77.0636,83.84,74.0,16.0,14.52,BS,1629999894.0
174,diamantino,-43.3002,-65.1023,43.23,63.0,43.0,22.64,AR,1629999643.0
175,honiara,25.5198,90.2201,73.9,98.0,100.0,4.38,IN,1629999895.0
176,marsh harbour,25.2934,32.554,93.22,15.0,0.0,14.07,EG,1629999895.0
177,rawson,62.0989,126.6992,51.06,89.0,94.0,6.22,RU,1629999895.0
178,tura,38.0133,-3.3705,87.35,24.0,0.0,5.32,ES,1629999896.0
179,esna,-45.8742,170.5036,44.8,85.0,100.0,6.17,NZ,1629999896.0
180,berdigestyakh,19.9103,109.6859,79.57,86.0,6.0,11.54,CN,1629999896.0
181,ubeda,-0.6,73.0833,82.54,73.0,45.0,9.62,MV,1629999897.0
182,dunedin,-17.8333,-149.2667,71.56,75.0,81.0,14.16,PF,1629999897.0
183,lingao,7.4167,81.8167,82.33,71.0,99.0,2.01,LK,1629999898.0
184,hithadhoo,18.2164,42.5053,73.22,68.0,0.0,4.61,SA,1629999898.0
185,lakes entrance,66.3167,-179.1667,34.95,97.0,100.0,3.4,RU,1629999898.0
186,teahupoo,-5.1989,-35.4608,86.9,60.0,10.0,19.84,BR,1629999899.0
187,kalmunai,35.2182,52.3409,91.69,12.0,0.0,7.34,IR,1629999899.0
188,abha,34.8791,-76.9013,88.03,81.0,90.0,10.36,US,1629999899.0
189,egvekinot,-20.9373,55.2919,69.76,73.0,63.0,1.43,RE,1629999670.0
190,touros,-24.4167,150.5,48.11,44.0,0.0,4.52,AU,1629999900.0
191,garmsar,39.0993,-76.8483,94.87,64.0,1.0,3.0,US,1629999900.0
192,havelock,50.7214,136.6319,63.21,91.0,100.0,0.85,RU,1629999901.0
193,le port,59.7035,30.7861,56.01,84.0,100.0,8.25,RU,1629999903.0
194,biloela,53.1436,0.3363,63.37,77.0,92.0,20.38,GB,1629999903.0
195,solnechnyy,-7.1981,-37.9292,97.99,21.0,23.0,8.46,BR,1629999904.0
196,nikolskoye,62.1535,45.1175,47.52,78.0,92.0,5.32,RU,1629999905.0
197,skegness,8.4109,20.6473,72.84,95.0,68.0,1.81,CF,1629999905.0
198,amderma,68.0546,166.4372,38.82,91.0,79.0,1.88,RU,1629999905.0
199,pianco,-3.6954,128.1814,78.67,85.0,91.0,7.87,ID,1629999906.0
200,dvinskoy,33.6416,42.8251,101.19,13.0,0.0,9.4,IQ,1629999906.0
201,ndele,13.0349,-9.4895,79.72,87.0,99.0,4.07,ML,1629999907.0
202,bilibino,50.2001,-66.3821,64.92,100.0,90.0,6.91,CA,1629999907.0
203,ambon,-29.15,-59.65,68.25,27.0,0.0,4.03,AR,1629999907.0
204,hit,29.9576,122.298,80.02,90.0,82.0,21.92,CN,1629999908.0
205,kita,17.0151,54.0924,78.89,89.0,75.0,8.05,OM,1629999908.0
206,sept-iles,22.5667,59.5289,91.33,53.0,47.0,11.18,OM,1629999908.0
207,reconquista,47.9,9.9,59.67,97.0,98.0,2.8,DE,1629999909.0
208,shenjiamen,-10.4,40.3333,72.72,83.0,20.0,9.22,TZ,1629999909.0
209,sur,64.8378,-147.7164,51.76,93.0,90.0,6.91,US,1629999910.0
210,bad wurzach,33.6,73.0667,87.24,70.0,0.0,1.99,PK,1629999910.0
211,madimba,-19.1133,-51.7342,96.28,16.0,65.0,6.6,BR,1629999910.0
212,tutla,44.0787,-80.2041,86.27,47.0,48.0,6.4,CA,1629999911.0
213,fairbanks,41.3973,-73.6171,95.04,61.0,20.0,1.01,US,1629999911.0
214,arya,-7.9631,145.7785,76.08,90.0,91.0,4.29,PG,1629999912.0
215,cassilandia,-11.3847,43.2844,77.29,69.0,20.0,0.0,KM,1629999912.0
216,shelburne,4.375,-7.7169,79.03,79.0,92.0,5.79,LR,1629999912.0
217,brewster,46.4856,135.8833,57.69,97.0,73.0,4.92,RU,1629999913.0
218,kerema,34.1667,77.5833,67.78,24.0,0.0,5.39,IN,1629999913.0
219,mitsamiouli,61.994,-49.6678,43.39,90.0,35.0,15.59,GL,1629999913.0
220,harper,-32.5,137.7667,41.7,79.0,1.0,2.71,AU,1629999914.0
221,leh,47.875,-3.9225,72.39,65.0,0.0,10.25,FR,1629999914.0
222,paamiut,59.7775,30.8181,56.17,81.0,100.0,8.46,RU,1629999915.0
223,port augusta,-41.4122,175.5153,52.03,84.0,100.0,5.32,NZ,1629999915.0
224,palabuhanratu,20.9,70.3667,81.72,77.0,98.0,11.68,IN,1629999916.0
225,concarneau,25.2088,64.6357,79.29,88.0,72.0,13.85,PK,1629999916.0
226,otradnoye,45.832,9.0312,82.69,54.0,17.0,4.18,CH,1629999916.0
227,waipawa,18.7369,7.3853,102.34,16.0,8.0,6.85,NE,1629999917.0
228,veraval,64.3833,-173.3,39.25,71.0,61.0,9.04,RU,1629999917.0
229,ormara,57.0531,-135.33,58.89,77.0,75.0,5.75,US,1629999917.0
230,chiasso,-35.9333,173.8833,55.78,80.0,100.0,8.34,NZ,1629999918.0
231,arlit,52.4267,31.7378,60.58,96.0,100.0,4.14,RU,1629999918.0
232,provideniya,-18.7106,-40.4006,81.9,51.0,71.0,12.62,BR,1629999824.0
233,nome,29.2892,121.4247,80.28,95.0,66.0,5.3,CN,1629999919.0
234,sitka,38.421,-121.4238,91.65,52.0,1.0,0.0,US,1629999919.0
235,dargaville,-4.2761,-55.9836,95.16,52.0,20.0,9.22,BR,1629999904.0
236,zlynka,9.9658,98.6348,77.79,84.0,100.0,4.5,TH,1629999848.0
237,nova venecia,31.61,34.7642,84.4,71.0,0.0,10.31,IL,1629999920.0
238,ninghai,5.6083,-3.1563,78.44,77.0,78.0,4.45,CI,1629999920.0
239,laguna,48.6814,71.6433,72.16,27.0,38.0,9.4,KZ,1629999921.0
240,itaituba,6.7,6.3333,71.08,93.0,100.0,4.65,NG,1629999921.0
241,ranong,41.85,-88.3126,89.62,62.0,1.0,1.99,US,1629999685.0
242,gat,-28.55,16.4333,56.34,77.0,1.0,11.86,NA,1629999921.0
243,ayame,-41.0667,145.9167,43.54,77.0,99.0,7.36,AU,1629999922.0
244,uromi,-23.7,133.8833,38.75,33.0,2.0,2.3,AU,1629999922.0
245,batavia,68.0531,39.5131,42.84,74.0,76.0,7.63,RU,1629999923.0
246,oranjemund,5.8808,-10.0467,78.76,81.0,93.0,8.55,LR,1629999923.0
247,burnie,53.4106,-2.9779,69.67,65.0,0.0,3.0,GB,1629999924.0
248,saleaula,-37.8333,140.7667,40.91,100.0,90.0,4.61,AU,1629999924.0
249,buchanan,10.9878,-74.9547,87.89,70.0,84.0,9.66,CO,1629999925.0
250,liverpool,-0.8667,134.0833,77.22,78.0,43.0,4.29,ID,1629999925.0
251,mount gambier,66.7697,123.3711,45.19,82.0,100.0,15.64,RU,1629999925.0
252,mendahara,57.79,-152.4072,53.11,82.0,1.0,0.0,US,1629999926.0
253,jinchengjiang,5.4802,-53.2011,84.69,65.0,14.0,8.25,GF,1629999926.0
254,puerto colombia,-10.4544,161.9205,78.6,84.0,15.0,10.02,SB,1629999927.0
255,manokwari,16.9,-95.05,83.57,63.0,75.0,11.95,MX,1629999927.0
256,zhigansk,-20.2333,164.0167,72.46,82.0,45.0,12.8,NC,1629999927.0
257,kodiak,42.1584,-72.3287,93.81,55.0,20.0,1.01,US,1629999928.0
258,iracoubo,3.7833,72.9667,83.03,75.0,53.0,14.99,MV,1629999928.0
259,kirakira,26.0614,119.3061,80.49,97.0,10.0,2.46,CN,1629999929.0
260,rincon viejo,53.9166,-122.753,58.44,89.0,90.0,3.44,CA,1629999926.0
261,poum,10.9995,122.6711,73.62,93.0,100.0,5.01,PH,1629999929.0
262,palmer,14.4,46.4667,81.93,57.0,16.0,8.95,YE,1629999930.0
263,mahibadhoo,56.26,62.9362,64.2,88.0,100.0,12.41,RU,1629999930.0
264,fuzhou,64.75,177.4833,36.1,87.0,0.0,6.71,RU,1629999930.0
265,prince george,36.7186,15.0907,83.61,66.0,7.0,16.96,IT,1629999931.0
266,dingle,4.25,-54.3833,95.4,36.0,38.0,1.59,GF,1629999931.0
267,marzuq,27.95,80.7667,83.44,70.0,100.0,0.96,IN,1629999931.0
268,dalmatovo,-31.4333,152.9167,46.36,78.0,69.0,6.08,AU,1629999881.0
269,anadyr,-20.2078,57.7625,69.91,70.0,3.0,13.42,MU,1629999932.0
270,pachino,51.7333,9.0167,59.38,83.0,41.0,9.4,DE,1629999932.0
271,grand-santi,42.6191,-113.6772,71.49,28.0,1.0,10.36,US,1629999932.0
272,lakhimpur,-13.7,-76.2167,66.25,68.0,0.0,12.66,PE,1629999933.0
273,port macquarie,-0.3167,102.35,72.93,96.0,85.0,1.88,ID,1629999933.0
274,bad driburg,55.1001,-105.2842,64.65,55.0,40.0,8.05,CA,1629999934.0
275,pisco,52.6333,29.7333,56.52,95.0,98.0,4.27,BY,1629999934.0
276,japura,46.4333,26.4,61.72,83.0,43.0,5.68,RO,1629999935.0
277,thilogne,-31.4241,-64.4978,70.88,26.0,0.0,15.01,AR,1629999935.0
278,la ronge,0.8,127.4,78.76,80.0,58.0,2.75,ID,1629999935.0
279,marcona,18.217,-63.0578,89.46,70.0,40.0,13.8,AI,1629999936.0
280,svetlogorsk,7.5264,-12.505,77.7,86.0,100.0,9.4,SL,1629999936.0
281,asau,-28.7667,114.6,55.81,71.0,90.0,9.22,AU,1629999937.0
282,villa carlos paz,40.5614,65.6886,80.1,18.0,0.0,5.37,UZ,1629999844.0
283,ternate,11.6667,92.75,78.91,87.0,100.0,9.04,IN,1629999659.0
284,bonthe,48.1128,-98.8651,58.98,77.0,90.0,12.66,US,1629999930.0
285,geraldton,-23.65,-70.4,60.08,69.0,27.0,9.71,CL,1629999938.0
286,nurota,49.6925,83.2892,58.55,56.0,0.0,5.08,KZ,1629999938.0
287,port blair,43.2731,19.9994,57.69,85.0,65.0,4.38,RS,1629999939.0
288,grand river south east,56.0013,55.9213,55.96,58.0,61.0,8.7,RU,1629999939.0
289,bargal,-22.2763,166.4572,73.38,77.0,61.0,6.2,NC,1629999939.0
290,devils lake,16.9833,73.3,79.9,85.0,100.0,3.89,IN,1629999940.0
291,antofagasta,56.0724,98.4813,59.07,59.0,95.0,2.73,RU,1629999940.0
292,sjenica,53.452,17.5317,58.48,66.0,100.0,5.1,PL,1629999940.0
293,starobaltachevo,-34.0033,24.7314,55.89,94.0,13.0,4.34,ZA,1629999941.0
294,noumea,-3.945,122.4989,73.17,95.0,98.0,3.18,ID,1629999941.0
295,ratnagiri,66.5606,67.7975,40.93,96.0,100.0,20.02,RU,1629999942.0
296,kvitok,44.7631,-85.6206,82.83,69.0,75.0,3.44,US,1629999942.0
297,tumannyy,6.3711,126.1689,80.74,73.0,92.0,0.83,PH,1629999942.0
298,sepolno krajenskie,-4.9714,-39.0153,96.53,26.0,3.0,10.18,BR,1629999943.0
299,kruisfontein,-17.7125,-39.2481,78.71,63.0,11.0,10.96,BR,1629999943.0
300,kendari,52.6333,126.75,59.2,98.0,100.0,7.16,RU,1629999944.0
301,aksarka,50.6996,-127.4199,57.38,100.0,75.0,8.05,CA,1629999944.0
302,traverse city,43.3439,46.8541,75.16,71.0,78.0,4.83,RU,1629999944.0
303,pundaguitan,-15.7667,128.7333,72.5,25.0,20.0,7.14,AU,1629999945.0
304,quixada,52.1667,14.25,59.05,80.0,99.0,3.0,DE,1629999945.0
305,sivaki,24.4667,54.3667,96.91,75.0,1.0,8.05,AE,1629999945.0
306,port hardy,43.65,25.1167,77.72,60.0,58.0,6.93,BG,1629999946.0
307,kostek,35.7333,140.8333,79.2,85.0,95.0,0.83,JP,1629999946.0
308,kununurra,48.7823,9.177,63.05,68.0,20.0,9.22,DE,1629999817.0
309,beeskow,-35.6566,-63.7568,71.46,16.0,26.0,19.84,AR,1629999947.0
310,skalistyy,13.5859,102.9737,76.26,92.0,98.0,4.65,KH,1629999947.0
311,abu dhabi,26.9147,70.9181,84.7,56.0,15.0,24.56,IN,1629999948.0
312,belene,-2.5744,150.7967,81.57,78.0,93.0,14.72,PG,1629999948.0
313,hasaki,51.7435,111.9606,51.96,71.0,100.0,3.85,RU,1629999948.0
314,stuttgart,64.2539,-15.2082,54.19,99.0,99.0,9.08,IS,1629999949.0
315,general pico,-0.9131,122.8766,74.98,85.0,98.0,6.42,ID,1629999949.0
316,jaisalmer,40.8068,-74.1854,95.94,54.0,20.0,1.01,US,1629999796.0
317,kavieng,-34.4833,-54.3333,63.21,40.0,0.0,7.05,UY,1629999950.0
318,mogzon,-21.4803,-56.1381,78.15,39.0,87.0,7.45,BR,1629999950.0
319,hofn,-24.7911,-50.0119,72.05,52.0,84.0,10.6,BR,1629999950.0
320,biak,53.3221,-0.9432,63.86,65.0,75.0,16.11,GB,1629999951.0
321,kadykchan,38.7333,-27.0667,73.65,64.0,75.0,13.35,PT,1629999951.0
322,bloomfield,29.9737,32.5263,83.17,59.0,0.0,14.99,EG,1629999952.0
323,rocha,66.4167,112.4,38.44,95.0,100.0,15.05,RU,1629999952.0
324,jardim,45.3167,55.2,86.97,27.0,1.0,8.12,KZ,1629999952.0
325,castro,10.2308,123.7379,76.35,85.0,91.0,2.95,PH,1629999953.0
326,east retford,-8.0089,-34.8553,80.33,61.0,40.0,11.5,BR,1629999705.0
327,praia da vitoria,22.9,-106.05,87.57,75.0,64.0,4.23,MX,1629999953.0
328,suez,36.4141,64.9053,82.02,12.0,0.0,3.31,AF,1629999954.0
329,udachnyy,43.6167,-73.0162,92.28,68.0,40.0,1.99,US,1629999954.0
330,chikoy,6.6221,73.07,82.87,77.0,99.0,18.1,MV,1629999954.0
331,beyneu,22.2855,114.1577,85.32,82.0,50.0,1.01,HK,1629999681.0
332,olinda,6.7989,81.4808,78.26,75.0,98.0,7.43,LK,1629999955.0
333,agua verde,6.5833,3.75,82.72,92.0,100.0,1.74,NG,1629999737.0
334,dawlatabad,68.2191,-135.0107,58.03,82.0,75.0,5.75,CA,1629999956.0
335,rutland,-3.6667,152.4333,78.39,83.0,84.0,7.09,PG,1629999956.0
336,kulhudhuffushi,68.8193,-51.1922,44.85,97.0,100.0,9.46,GL,1629999956.0
337,victoria,42.7495,-88.0751,89.11,77.0,22.0,1.01,US,1629999957.0
338,solsvik,-15.7472,-41.46,84.7,27.0,1.0,7.87,BR,1629999957.0
339,wattegama,26.1842,127.7558,81.68,86.0,40.0,4.61,JP,1629999958.0
340,lagos,43.65,51.2,75.78,45.0,19.0,9.86,KZ,1629999958.0
341,aklavik,34.2542,-110.0298,86.31,33.0,7.0,11.5,US,1629999912.0
342,namatanai,31.4167,51.5667,69.08,17.0,0.0,3.94,IR,1629999959.0
343,racine,24.5,74.1833,75.2,73.0,100.0,7.49,IN,1629999959.0
344,nishihara,65.85,74.4859,55.18,91.0,89.0,19.51,RU,1629999960.0
345,aktau,13.0667,-59.5333,87.89,66.0,40.0,17.27,BB,1629999960.0
346,show low,12.35,29.25,71.94,88.0,98.0,11.41,SD,1629999960.0
347,semirom,-37.9585,176.9854,48.78,86.0,100.0,1.03,NZ,1629999961.0
348,lolua,-34.0527,23.3716,58.41,73.0,1.0,5.14,ZA,1629999961.0
349,bhindar,69.3833,178.4167,32.63,87.0,99.0,17.87,RU,1629999962.0
350,khonuu,73.5069,80.5464,36.82,78.0,15.0,14.88,RU,1629999962.0
351,pangody,17.9583,-102.2,85.6,67.0,96.0,4.65,MX,1629999963.0
352,oistins,69.3535,88.2027,46.09,91.0,100.0,8.86,RU,1629999963.0
353,abu zabad,50.2334,-63.5986,66.56,77.0,90.0,9.22,CA,1629999964.0
354,plettenberg bay,-34.6667,-54.9167,64.22,45.0,0.0,11.16,UY,1629999964.0
355,leningradskiy,55.7992,-4.3929,74.82,64.0,3.0,1.01,GB,1629999964.0
356,dikson,56.8471,105.2542,54.12,92.0,87.0,2.17,RU,1629999965.0
357,lazaro cardenas,-46.2339,169.75,42.46,98.0,100.0,1.68,NZ,1629999965.0
358,norilsk,55.2834,-114.769,66.18,52.0,1.0,12.66,CA,1629999966.0
359,sorvag,45.5834,-70.8823,85.93,56.0,9.0,13.31,CA,1629999966.0
360,maldonado,8.9936,-79.5197,84.15,76.0,40.0,10.36,PA,1629999703.0
361,barrhead,4.9333,-52.3333,86.09,73.0,75.0,1.99,GF,1629999684.0
362,yantal,-0.6876,100.9537,71.19,98.0,64.0,1.61,ID,1629999863.0
363,balclutha,5.9485,80.5353,78.6,88.0,100.0,12.53,LK,1629999668.0
364,slave lake,23.6139,58.5922,89.62,40.0,4.0,4.61,OM,1629999705.0
365,sataua,70.8578,29.0864,53.6,71.0,0.0,1.14,NO,1629999967.0
366,lac-megantic,-14.4667,132.2667,59.32,51.0,33.0,8.05,AU,1629999968.0
367,panama city,65.8167,87.9833,53.78,63.0,66.0,12.59,RU,1629999968.0
368,cayenne,19.4167,80.0667,77.31,87.0,81.0,2.13,IN,1629999969.0
369,bronkhorstspruit,54.2331,-125.7533,53.02,83.0,100.0,4.99,CA,1629999969.0
370,sijunjung,66.0317,60.1659,44.44,91.0,100.0,8.32,RU,1629999969.0
371,matara,-9.6567,120.2641,74.41,84.0,19.0,7.92,ID,1629999970.0
372,muscat,37.8,-25.5833,71.11,53.0,20.0,10.36,PT,1629999970.0
373,katherine,-1.6186,31.62,68.95,50.0,0.0,2.59,TZ,1629999971.0
374,turukhansk,42.1263,-1.1372,92.07,22.0,30.0,11.77,ES,1629999971.0
375,allapalli,9.4428,-78.5906,82.56,75.0,100.0,12.82,PA,1629999971.0
376,burns lake,49.4867,105.9228,51.15,78.0,85.0,2.53,MN,1629999972.0
377,inta,39.8333,-4.0,89.89,26.0,74.0,5.59,ES,1629999803.0
378,waingapu,67.6803,53.1512,40.98,94.0,93.0,8.84,RU,1629999972.0
379,babanusah,-25.4,-70.4833,63.12,62.0,0.0,6.4,CL,1629999973.0
380,kamachumu,49.1667,-57.4316,76.86,38.0,75.0,9.22,CA,1629999926.0
381,ejea de los caballeros,-13.9669,33.7873,72.37,30.0,2.0,3.91,MW,1629999740.0
382,nargana,48.7555,-91.6216,66.06,42.0,49.0,5.37,CA,1629999973.0
383,darhan,-8.3791,-74.5539,93.24,52.0,40.0,8.05,PE,1629999974.0
384,toledo,-9.8756,-56.0861,100.22,28.0,40.0,4.61,BR,1629999974.0
385,iskateley,53.5102,142.9671,58.69,97.0,100.0,5.61,RU,1629999975.0
386,saryshagan,38.2061,67.1986,73.62,21.0,0.0,9.51,UZ,1629999975.0
387,taltal,-17.8,-63.1667,60.85,72.0,90.0,13.8,BO,1629999975.0
388,deer lake,-18.65,-173.9833,68.68,60.0,40.0,3.44,TO,1629999976.0
389,atikokan,-3.3333,36.8,66.47,52.0,20.0,5.75,TZ,1629999976.0
390,pucallpa,50.8098,-0.0594,65.91,69.0,75.0,7.0,GB,1629999977.0
391,alta floresta,-30.65,153.0,49.17,78.0,44.0,6.55,AU,1629999977.0
392,ekhabi,-17.65,-62.75,62.28,31.0,100.0,9.17,BO,1629999977.0
393,boysun,38.1973,44.7653,67.19,23.0,0.0,2.71,IR,1629999978.0
394,santa cruz,31.4583,131.2333,76.17,94.0,95.0,5.39,JP,1629999978.0
395,neiafu,61.95,159.2333,48.94,99.0,100.0,5.77,RU,1629999978.0
396,nizhneyansk,-20.4,164.5667,69.66,90.0,41.0,11.07,NC,1629999979.0
397,poli,43.55,13.1667,78.39,59.0,23.0,3.0,IT,1629999979.0
398,rottingdean,35.9154,-94.97,95.22,43.0,1.0,4.61,US,1629999869.0
399,nambucca heads,12.0564,-61.7485,84.13,64.0,16.0,13.73,GD,1629999980.0
400,pailon,53.649,-1.7842,66.99,74.0,0.0,4.0,GB,1629999967.0
401,salmas,42.2506,-75.833,87.19,71.0,1.0,1.01,US,1629999980.0
402,kushima,21.4612,-71.1419,82.35,74.0,17.0,15.68,TC,1629999694.0
403,evensk,-36.8333,175.7,56.01,74.0,100.0,8.25,NZ,1629999981.0
404,pouebo,-8.4753,-74.8058,92.89,29.0,89.0,3.62,PE,1629999981.0
405,ancona,46.1667,20.5833,69.04,35.0,17.0,5.77,HU,1629999981.0
406,tahlequah,-9.6608,20.3916,83.25,27.0,39.0,5.77,AO,1629999982.0
407,saint-georges,-26.6481,15.1594,55.94,83.0,0.0,3.56,NA,1629999982.0
408,huddersfield,13.5928,-89.8275,93.54,68.0,75.0,6.26,SV,1629999982.0
409,broome,67.4667,78.7,56.25,98.0,100.0,14.99,RU,1629999983.0
410,cockburn town,-11.0964,-77.6139,65.37,75.0,67.0,11.36,PE,1629999983.0
411,whitianga,58.8353,125.4869,53.62,91.0,81.0,5.75,RU,1629999984.0
412,campoverde,22.8,85.9667,77.74,92.0,100.0,1.25,IN,1629999984.0
413,apatfalva,7.9986,124.2928,65.64,94.0,100.0,2.19,PH,1629999984.0
414,saurimo,33.5959,56.9244,89.89,14.0,0.0,5.48,IR,1629999985.0
415,acajutla,-9.4467,-46.3003,99.66,15.0,66.0,4.36,BR,1629999985.0
416,waddan,1.0,-52.0,81.66,69.0,95.0,3.56,BR,1629999986.0
417,tazovskiy,-34.5833,150.8552,53.2,76.0,100.0,6.04,AU,1629999986.0
418,nizhniy kuranakh,39.4033,-9.1384,84.33,70.0,11.0,7.0,PT,1629999987.0
419,marawi,-0.9492,100.3543,77.05,86.0,76.0,3.09,ID,1629999987.0
420,umzimvubu,50.7231,23.252,55.24,81.0,100.0,5.21,PL,1629999988.0
421,morros,78.2186,15.6401,42.64,87.0,75.0,17.27,SJ,1629999988.0
422,amapa,17.9167,103.0833,74.07,96.0,27.0,5.1,TH,1629999988.0
423,flinders,-45.5752,-72.0662,44.55,53.0,75.0,6.91,CL,1629999989.0
424,karaul,24.8,125.2833,82.54,78.0,0.0,10.6,JP,1629999989.0
425,caldas da rainha,-33.0393,-71.6273,62.83,53.0,0.0,9.22,CL,1629999985.0
426,tarudant,40.1629,-8.3327,85.05,54.0,7.0,6.2,PT,1629999989.0
427,padang,18.2,-73.75,84.81,68.0,68.0,13.91,HT,1629999990.0
428,formoso do araguaia,41.7597,86.1469,75.18,31.0,10.0,13.87,CN,1629999990.0
429,longyearbyen,-4.085,-63.1414,103.84,18.0,26.0,3.8,BR,1629999991.0
430,nong khai,56.8306,86.6258,61.86,87.0,4.0,5.75,RU,1629999991.0
431,coihaique,-2.5833,115.3833,72.05,96.0,81.0,1.81,ID,1629999991.0
432,hirara,42.0551,59.3788,80.6,30.0,0.0,6.82,TM,1629999992.0
433,valparaiso,-17.4667,16.3333,87.55,19.0,23.0,7.67,NA,1629999992.0
434,lata,5.0268,118.327,75.27,93.0,96.0,3.89,MY,1629999993.0
435,les cayes,60.3964,-1.353,55.31,83.0,20.0,12.44,GB,1629999993.0
436,korla,29.3627,-100.8968,95.43,49.0,1.0,9.22,US,1629999918.0
437,bolungarvik,43.0645,44.7417,64.54,82.0,75.0,4.47,RU,1629999993.0
438,coari,29.0361,114.5636,73.98,99.0,98.0,1.39,CN,1629999994.0
439,zyryanskoye,15.85,-97.0667,85.03,65.0,75.0,13.8,MX,1629999994.0
440,barabai,18.9048,-3.5265,101.12,25.0,16.0,12.46,ML,1629999995.0
441,akdepe,40.8021,-124.1637,66.2,83.0,9.0,5.01,US,1629999995.0
442,eenhana,43.3236,145.575,61.77,99.0,88.0,7.96,JP,1629999995.0
443,lahad datu,26.9581,56.2719,100.27,67.0,1.0,10.47,IR,1629999996.0
444,brae,50.1186,-5.5371,68.68,88.0,0.0,11.5,GB,1629999996.0
445,del rio,60.8697,60.4153,47.37,88.0,10.0,4.7,RU,1629999996.0
446,oktyabrskoye,-28.783,32.0377,76.39,61.0,81.0,14.32,ZA,1629999997.0
447,yining,37.7333,-25.6667,72.32,53.0,20.0,10.36,PT,1629999997.0
448,puerto escondido,57.8406,108.3492,53.06,94.0,36.0,2.33,RU,1629999998.0
449,araouane,7.9178,98.3332,75.02,71.0,83.0,5.06,TH,1629999998.0
450,eureka,37.6138,-122.4869,79.36,74.0,20.0,3.0,US,1629999862.0
451,nemuro,-25.1008,-52.8781,63.46,71.0,100.0,2.51,BR,1629999998.0
452,qeshm,61.6789,64.4819,50.63,82.0,0.0,6.58,RU,1629999999.0
453,penzance,50.147,48.5704,77.2,33.0,82.0,11.01,RU,1629999999.0
454,polunochnoye,-0.7193,8.7815,78.76,78.0,40.0,11.5,GA,1630000000.0
455,richards bay,38.6979,-9.4215,80.15,64.0,0.0,8.99,PT,1630000000.0
456,ponta delgada,-9.25,33.65,61.59,66.0,15.0,3.22,TZ,1630000000.0
457,alekseyevsk,-25.1667,45.05,67.06,86.0,12.0,13.11,MG,1630000001.0
458,kathu,42.3339,142.3669,66.81,90.0,53.0,7.38,JP,1629999757.0
459,pacifica,11.5,42.5,87.22,34.0,100.0,5.37,DJ,1630000001.0
460,guaraniacu,-16.3494,-53.7583,97.79,15.0,58.0,7.18,BR,1630000002.0
461,kommunisticheskiy,38.0833,138.4333,75.42,94.0,75.0,6.4,JP,1630000002.0
462,aleksandrov gay,47.5673,35.7858,74.03,68.0,98.0,9.13,UA,1630000003.0
463,huilong,64.5667,143.2,50.86,92.0,100.0,5.7,RU,1630000003.0
464,cascais,7.7102,81.6924,82.4,68.0,95.0,5.39,LK,1630000004.0
465,tukuyu,10.346,107.0843,80.2,82.0,100.0,5.48,VN,1629999814.0
466,beloha,-5.9847,-79.7453,82.85,45.0,71.0,6.82,PE,1630000004.0
467,shizunai,57.643,32.466,57.07,86.0,99.0,8.63,RU,1630000005.0
468,jibuti,66.9395,-53.6735,42.01,89.0,100.0,6.06,GL,1630000005.0
469,guiratinga,-7.2597,-34.9075,81.86,65.0,75.0,17.27,BR,1630000005.0
470,ryotsu,65.75,150.85,51.37,89.0,100.0,6.6,RU,1630000006.0
471,orikhiv,51.1537,37.8879,71.17,36.0,57.0,9.84,RU,1630000006.0
472,ust-nera,38.9592,-85.8903,93.47,59.0,49.0,4.0,US,1630000007.0
473,mrirt,-17.8136,-50.5969,97.84,14.0,37.0,4.85,BR,1630000007.0
474,batticaloa,-25.3,-56.9,69.12,36.0,51.0,4.76,PY,1630000008.0
475,vung tau,-9.0763,143.2092,76.96,90.0,96.0,14.2,PG,1630000008.0
476,olmos,-28.65,153.6167,52.18,65.0,6.0,8.7,AU,1630000008.0
477,demyansk,20.931,-17.0347,75.18,78.0,0.0,20.71,MR,1630000009.0
478,sisimiut,27.6667,-105.1667,84.38,37.0,2.0,6.62,MX,1630000009.0
479,conde,26.1247,127.6694,82.42,83.0,20.0,3.44,JP,1630000009.0
480,zyryanka,-2.65,10.0,75.63,83.0,42.0,6.8,GA,1630000010.0
481,novikovo,4.8845,-1.7554,78.87,80.0,100.0,7.92,GH,1630000010.0
482,seymour,33.7333,135.9833,78.91,85.0,83.0,4.72,JP,1630000010.0
483,santa helena de goias,45.5234,-122.6762,69.49,77.0,90.0,1.01,US,1629999477.0
484,isla pucu,-10.6167,150.6667,78.8,84.0,40.0,11.07,PG,1630000011.0
485,daru,-9.1061,124.8925,70.52,85.0,46.0,5.28,ID,1630000011.0
486,byron bay,33.7,-117.7675,101.44,46.0,1.0,1.01,US,1630000012.0
487,nouadhibou,62.7161,129.6658,57.31,90.0,99.0,10.54,RU,1630000012.0
488,camargo,-17.5333,-149.3333,77.02,77.0,41.0,16.06,PF,1630000013.0
489,itoman,18.5001,-69.9886,89.28,69.0,40.0,4.0,DO,1630000013.0
490,takoradi,20.8783,-156.6825,76.75,69.0,0.0,8.01,US,1630000014.0
491,portland,-10.1667,123.5833,76.1,78.0,44.0,10.09,ID,1630000014.0
492,samarai,-35.6167,174.5,58.15,77.0,100.0,15.39,NZ,1630000015.0
493,atambua,-33.4569,-70.6483,56.64,54.0,0.0,0.0,CL,1630000015.0
494,orange,6.8833,73.1,82.99,77.0,96.0,18.9,MV,1630000015.0
495,namtsy,58.5169,-117.136,62.71,63.0,20.0,8.05,CA,1630000016.0
496,tiarei,10.5669,72.642,81.63,80.0,88.0,23.96,IN,1630000016.0
497,santo domingo,37.1882,-3.6067,91.9,30.0,0.0,1.01,ES,1629999795.0
498,zachagansk,53.75,127.2667,58.69,96.0,100.0,4.63,RU,1630000017.0
499,lahaina,38.2546,-121.3,91.65,26.0,0.0,5.91,US,1629999841.0
500,halalo,42.2683,118.9636,57.51,70.0,6.0,6.53,CN,1630000017.0
501,kupang,12.9667,-2.2667,75.7,82.0,100.0,3.87,BF,1630000018.0
502,ngunguru,4.1363,96.1285,76.6,89.0,79.0,2.84,ID,1630000018.0
503,santiago,51.55,-9.2667,69.6,78.0,0.0,4.72,IE,1630000019.0
504,dhidhdhoo,34.7667,32.4167,84.11,65.0,0.0,6.91,CY,1630000019.0
505,high level,20.4667,94.8833,80.13,80.0,100.0,10.25,MM,1630000019.0
506,kavaratti,31.6128,55.4107,86.49,14.0,0.0,5.75,IR,1630000020.0
507,grenada,42.1362,-0.4087,90.28,18.0,0.0,13.8,ES,1630000013.0
508,zeya,-43.5333,172.6333,50.92,86.0,90.0,4.0,NZ,1630000020.0
509,galt,49.6167,127.9833,58.01,97.0,99.0,6.76,RU,1630000021.0
510,chifeng,44.3,86.0333,78.12,25.0,20.0,8.05,CN,1630000021.0
511,mount isa,-17.8786,36.8883,73.35,83.0,0.0,5.75,MZ,1630000022.0
512,yako,47.05,16.0833,60.12,90.0,97.0,7.94,AT,1630000022.0
513,meulaboh,-15.5333,167.1667,75.36,80.0,74.0,8.88,VU,1630000023.0
514,skibbereen,21.8787,95.9797,81.43,76.0,99.0,9.15,MM,1629999901.0
515,pafos,9.2463,118.4082,77.67,83.0,98.0,2.57,PH,1630000024.0
516,yenangyaung,6.189,-67.4859,92.5,51.0,37.0,1.92,CO,1630000024.0
517,bafq,64.1835,-51.7216,47.01,87.0,75.0,5.75,GL,1630000024.0
518,huesca,59.1167,159.9667,49.19,83.0,100.0,7.7,RU,1630000025.0
519,konstantinovka,40.0936,113.2914,58.14,60.0,65.0,4.43,CN,1630000025.0
520,shihezi,-21.5667,165.4833,68.5,83.0,45.0,4.45,NC,1630000026.0
521,quelimane,-20.0064,57.6608,70.2,68.0,7.0,5.01,MU,1630000026.0
522,furstenfeld,30.4833,-115.95,81.28,61.0,5.0,12.48,MX,1630000027.0
523,sagaing,51.1983,136.6669,62.29,98.0,100.0,3.62,RU,1630000027.0
524,panacan,-29.9533,-71.3436,60.53,58.0,0.0,11.95,CL,1629999805.0
525,puerto carreno,66.0833,76.6333,57.72,91.0,92.0,9.82,RU,1630000028.0
526,nuuk,17.1006,100.8374,74.41,96.0,70.0,2.51,TH,1630000028.0
527,palana,-19.8,-63.2167,65.77,26.0,97.0,4.68,BO,1630000029.0
528,tuysarkan,29.9697,40.2064,105.37,8.0,1.0,9.22,SA,1630000029.0
529,datong,35.9221,74.3087,82.54,53.0,54.0,2.39,PK,1630000030.0
530,bourail,69.4865,88.3972,45.57,91.0,100.0,7.43,RU,1630000030.0
531,grand gaube,66.7131,27.4306,46.71,73.0,79.0,2.86,FI,1630000030.0
532,san quintin,29.0331,21.5482,89.76,23.0,0.0,9.86,LY,1630000031.0
533,dzhusaly,43.826,-111.7897,74.46,32.0,1.0,8.05,US,1630000031.0
534,gorin,1.1983,-70.1733,92.01,45.0,67.0,2.77,CO,1630000031.0
535,coquimbo,38.7992,-9.4469,79.97,63.0,0.0,10.36,PT,1630000032.0
